	shopname	meituan_id	dianping_id	address	lat	lon	google_road	google_qu	dianping_road	dianping_qu	meituan_category	dianping_category1	dianping_category2	dianping_price	telephone	problem	reviews	本月销量	本月销售额	本月累计销量	jaccard_entropy	same_cat_ratio	degreeCus	degreeDist	avgCusEntro	numStoreCusVisted	cusEigen	dEigen	fiter_flag	商家评分	Income_entropy	Num_Unique_Customers	popularity
0	东来顺（顺义店）	92499153	61532418.0	顺义区胜利街道府前西街10号（金百万二层）	40.129715	116.648254	10	Fu Qian Xi Jie	顺义	顺义区,顺义	火锅	涮羊肉	涮羊肉	137.0	010-61479055	1.0	886.285714286	155.0	39672.6985714	5610.57142857	2.38516641652	0.230603448276	0.847395399496	408.189867878	0.406158568496	2.58698727016	0.0188936663056	0.00830250864717	1	5.0	3.07205870484	1414	289.581741397
1	鱼众不同（万泉庄路店）	286649	2493826.0	海淀区万泉庄路人民大学西门外（第十九中学南门对面）	39.96804	116.30537	Wanquanzhuang Road	Haidian Qu	苏州桥	海淀区,苏州桥	川湘菜	北京菜	北京菜	53.0	010-57115362	1.0	7509.6	219.666666667	18581.525	5593.33333333	2.38007436897	0.105970149254	0.884750265243	415.368947429	0.670970813478	3.37651122625	0.0197265364967	0.00844852983666	1	4.92027271759	3.68170965563	579	350.594811321
2	玉林串串香火锅（西小口店）	5727280		海淀区西小口路西小口地铁站西北口斜对面永发生活超市底商（近西小口地铁A口）（空竹阁西20米）	40.046845	116.351658	Xi Xiao Kou Road	Haidian			火锅						209.0	9.0	801.875	635.0	2.24659419448	0.258620689655	0.187657314967	175.359465413	0.485092648165	2.8625	0.00418403816083	0.00356678005145	1	4.8	2.52633185041	80	
3	英伦时光（通罗斯福店）	4492556		通州区九棵树罗斯福广场B1FZ075（八通线九棵树地铁站，罗斯福商场北广场东步行梯，麦当劳斜对面）	39.89016	116.657585	China	Tongzhou			甜点饮品						2948.0	49.0	656.0	1184.0	2.32084850735	0.13982300885	1.42182081382	379.355921716	0.832386058316	4.44863731656	0.031701149214	0.0077160313576	1	4.0	4.20131786815	477	
4	悠舍人家采摘园	95428421		昌平区定泗路与上承路交叉口西沙农业园d27号棚（温度水城东侧，靠近中央戏剧学院北京邮电大学）	40.113851	116.382808	Dingsi Road	Changping Qu			农家乐						21.0	2.0	300.0	17.0	2.02518689682	0.0	0.104204346833	101.388664709	0.564973058277	3.7	0.00232335714572	0.00206222724205	1	4.0	1.50478828368	20	
5	猫猫咪呀港式甜品	42042574		昌平区东关二条石油大学阳光学生公寓2楼底商（阳光麦当劳胡同里400米,从再东兴化妆品店上二楼）	40.2233526	116.2429921	Dongguan 2nd Alley	Changping			甜点饮品						72.0	0.0	6.06666666667	49.0	2.0456861654	0.108108108108	0.134281046714	306.806511787	0.901962284897	4.91666666667	0.00299395216129	0.00624038938143	1	3.8	2.02280852941	12	
6	格林城堡	99073326		昌平区南北庄路南郝庄2号口底商2号店	40.220884	116.210535	Nanbeizhuang Road	Changping Qu			甜点饮品						66.0	8.5	622.35	55.5	1.46246027081	0.142857142857	0.130220522274	83.2437469957	0.644407886788	2.57894736842	0.00290341804481	0.00169316287258	1	3.6	2.15456185261	19	
7	明轩草莓采摘园（明轩草莓采摘园）	41097431		昌平区兴寿镇东营村东营草莓园171.199.200.157.158.159.61大棚（昌金路麦庄桥西500米路南）	40.221755	116.412727	Xingshouzhen	Changping			农家乐						678.0	0.0	0.0	542.0	2.20446691958	0.0	0.188568614872	6.82857767622	0.577142906694	2.87301587302	0.00420435665244	0.000138892044282	1	3.6	2.28962609322	63	
8	香草香草云南原生态火锅（房山长阳店）	108999515	67852758.0	房山区长阳镇长兴街11号院1号楼103室（首创奥特莱斯对面，合景领峰底商08-1）	39.769188	116.186035			良乡	房山区,良乡	火锅	火锅	火锅	109.0	010-50824050	1.0	12.0	11.0	1002.1925	674.0	1.25350878275	0.166666666667	0.0584922227034	71.5397745403	0.277258872224	1.7	0.001304152156	0.00145510617357	1	4.56666666667	1.35923670067	10	9.1944266055
9	膳宜坊（长阳京投港店）	122462769	76729698.0	房山区长政南街1号院1号楼2层（长阳地铁B出口）	39.76326	116.21326			长阳镇	房山区,长阳镇	其他美食	湘菜	湘菜	76.0	010-50875208	1.0	7.0	18.0	178.27	88.0	1.67378739041	0.0526315789474	0.0461969030457	512.571498161	0.706225120027	2.72727272727	0.00103001369965	0.0104256122718	1	4.6	2.2718685127	11	2.34565789474
10	小恒水饺(京投港·长阳店)	116927052	73586171.0	房山区长阳镇长政南街1号院1号楼京投港·长阳购物中心4层	39.763317	116.2133			长阳镇	房山区,长阳镇	小吃快餐	饺子	饺子	30.0	010-50875396	1.0	63.0	183.0	4223.97	12806.0	2.3849576515	0.229607250755	1.2271243374	234.876744889	0.550153743427	3.67171717172	0.0273601647593	0.00477735083332	1	5.0	3.87076508099	792	140.799
11	避风港(京投港·长阳店)	113201037	73586200.0	房山区长阳镇长政南街1号院1号楼京投港·长阳购物中心4层	39.763317	116.2133			长阳镇	房山区,长阳镇	粤港菜	茶餐厅	茶餐厅	66.0	010-50875398	1.0	125.0	29.0	2236.475	685.0	2.18897319862	0.018018018018	0.347775744073	234.876744889	0.823438410471	3.875	0.00775406482219	0.00477735083332	1	4.4	2.83889015236	48	33.8859848485
12	小鲸匹萨（通州万达店）	42026401	21165916.0	通州区北苑新华西街58号万达广场3楼3027号铺	39.905422	116.64232			新华大街	通州区,新华大街	西餐	比萨	比萨	58.0	010-50906086	1.0	588.0	1.66666666667	158.173333333	75.0	2.19835869663	0.0421052631579	0.231447619555	959.625422051	0.672371686096	3.51162790698	0.00516039394799	0.0195186088426	1	4.87142857143	2.33559686378	43	2.72712643678
13	唐印烘焙工坊	76116363	57511066.0	通州区万达广场西门金街A3-101	39.90472	116.63954			通州北苑	通州区,通州北苑	甜点饮品	面包甜点	面包甜点	45.0	010-50906212	1.0	488.0	12.0	51.575	127.5	2.25422756669	0.163212435233	2.45003030137	836.72450627	1.16929263573	10.1348314607	0.0546262759749	0.0170188262749	1	4.96393442623	4.06239714694	89	1.14611111111
14	常樂屋湖南常德津市牛肉米粉（通州北苑店）	102794601	69031671.0	通州区万达广场金街A1区2楼204室（吉米造型对面东50米、B区二楼向西过天桥即到A1区2楼）	39.904728	116.63935			通州北苑	通州区,通州北苑	小吃快餐	小吃快餐	小吃快餐,粉面馆	32.0	010-50906233	1.0	6.0	10.25	284.0175	62.0	2.00792264415	0.345679012346	0.600807766293	838.085178999	1.06299541404	8.46153846154	0.0133957081392	0.017046502114	1	4.46666666667	2.56494935746	13	8.875546875
15	饺来饺去（通州万达店）	96129887	66966328.0	通州区新华西街58号院1号楼五层5010（外婆家楼上）	39.905277	116.64173			通州北苑	通州区,通州北苑	小吃快餐	饺子	饺子	43.0	010-50906283	1.0	24.0	12.5	1036.1725	111.5	2.20469505638	0.333333333333	0.363329373445	995.332762053	0.750535398049	4.7037037037	0.00810085108439	0.0202448897292	1	4.71666666667	2.31891656968	27	24.0970348837
16	妈妈米线（大兴龙湖天街店）	99147098	66799818.0	大兴区永大路龙湖天街购物中心三楼19号	39.68643	116.320274			大兴区	大兴区	小吃快餐	粉面馆	粉面馆,小吃快餐	38.0	010-50927321	1.0	1240.0	89.0	3197.776	2765.2	2.37505010476	0.238709677419	0.821425673072	422.452436737	0.682501460967	3.67322834646	0.0183146410414	0.00859260673779	1	5.0	3.95475743013	254	84.152
17	米字旁·韩国街头料理（旧宫店）	93941595	65665327.0	大兴区旧宫镇万科广场五楼（地铁亦庄线旧宫站对面）	39.80595	116.4594			旧宫	大兴区,旧宫	日韩料理	韩国料理	韩国料理	54.0	010-50927329	1.0	699.333333333	98.25	11517.335	4985.25	2.17016267831	0.0990099009901	0.356691089016	552.002049193	0.777955344125	4.21428571429	0.00795284280995	0.0112276226024	1	4.56949475691	2.91074971333	42	213.283981481
18	表妹香港靓点餐厅（住总万科店）	95415958	90000983.0	大兴区旧宫东西大街旧宫地铁对面住总万科广场5层（近卢米埃影城）	39.805637	116.45991			旧宫	大兴区,旧宫	粤港菜	北京菜	北京菜	75.0	010-50927434	1.0	194.333333333	19.25	1942.27	93.25	2.04958209744	0.0	0.387828664116	482.650294483	0.918057764826	4.95454545455	0.00864709127277	0.0098170203595	1	4.57204116638	2.60238077993	22	25.8969333333
19	玛雅铁板烧餐厅（旧宫万科店）	90476679	65356074.0	大兴区旧宫东西大街住总万科广场4层L4001-4002号	39.805634	116.459724			旧宫	大兴区,旧宫	烧烤烤肉	日式烧烤/铁板烧	日式烧烤/铁板烧,烧烤	117.0	010-50927567	1.0	973.4	41.5	1277.095	385.0	2.32212382489	0.0708955223881	0.685677239714	555.542136063	0.59273898208	3.71653543307	0.0152879717877	0.011299627334	1	5.0	2.63097482478	127	10.9153418803
20	欢乐牧场（住总万科广场店）	91350849	65318561.0	大兴区旧宫东西大街旧宫地铁对面住总万科广场5层	39.80595	116.4594			旧宫	大兴区,旧宫	自助餐	自助餐	自助餐	64.0	010-50927576	1.0	1500.0	51.25	3128.1325	3013.0	2.22944291484	0.119791666667	0.549493545643	552.002049193	0.53110280256	2.6509009009	0.01225159789	0.0112276226024	1	4.1502	3.3528971539	444	48.8770703125
21	醉湘（住总万科店）	92931353	65665487.0	大兴区东马路住总万科4层	39.80556	116.45941			旧宫	大兴区,旧宫	川湘菜	湘菜	湘菜	75.0	010-50927588	1.0	521.0	10.3333333333	955.433333333	433.333333333	2.26357005472	0.149606299213	0.340843418152	534.78158764	0.638804057783	3.37142857143	0.00759950055059	0.0108773615053	1	4.95009596929	2.79678820703	70	12.7391111111
22	一味一诚烤全鱼（旧宫万科店）	66729216	27025310.0	大兴区东西大街旧宫地铁对面住总万科广场4层L4003（地铁亦庄线旧宫站）	39.80595	116.4594			旧宫	大兴区,旧宫	川湘菜	烤鱼	烤鱼	83.0	010-50927601	1.0	671.428571429	266.142857143	32770.0628571	15248.0	1.78287939767	0.0869565217391	0.0507251941458	552.002049193	0.732788921705	2.92307692308	0.00113097721801	0.0112276226025	1	4.96872340426	1.94593477576	13	394.820034423
23	汉唐小馆	86552090	65355959.0	大兴区东马路住总万科广场4层	39.80595	116.4594			旧宫	大兴区,旧宫	西北菜	西北菜	西北菜	44.0	010-50927612	1.0	672.0	231.5	5279.8	2019.5	2.29495846077	0.0138888888889	0.913743469626	552.002049193	0.86388244037	4.16379310345	0.0203729737197	0.0112276226025	1	3.8	3.8112504211	232	119.995454545
24	串来串去（荟聚店）	41714779	23075799.0	大兴区西红门荟聚购物中心3层	39.78893	116.32784			西红门	大兴区,西红门	烧烤烤肉	烧烤	烧烤	67.0	010-50931836	1.0	3378.0	302.0	40593.8966667	20846.3333333	2.42430452799	0.0824652777778	1.10365437028	346.684118789	0.681348329559	3.44320420223	0.0246072581953	0.00705149275029	1	4.45156897573	4.15018769914	1523	605.879054727
25	京南第一涮（西红门荟聚店）	40241773	23075602.0	大兴区欣宁街荟聚购物中心三层	39.78811	116.326225			西红门	大兴区,西红门	火锅	火锅	火锅	84.0	010-50931837	1.0	2625.6	108.166666667	20042.925	5346.66666667	2.36001894977	0.226890756303	0.772264963156	353.20443219	0.561918555506	2.95600475624	0.0172185458194	0.00718411475453	1	4.51846435101	3.58014319562	841	238.60625
26	天意小馆（荟聚西红门店）	41427217	21560688.0	大兴区地铁4号线西红门宜家荟聚购物中心三层	39.787888	116.32733			西红门	大兴区,西红门	京菜鲁菜	北京菜	北京菜	74.0	010-50931871	1.0	1955.0	21.5	2000.2075	9580.5	1.3771036528	0.0909090909091	0.167720275006	458.289804613	0.731836819169	3.2	0.00373951865982	0.00932153236797	1	4.63340153453	1.70753917414	15	27.0298310811
27	澳大利亚AUNT LIL'S冻酸奶（荟聚购物中心西红门店）	64443299	32445786.0	大兴区欣宁街15号荟聚购物中心3楼	39.78914	116.32649			西红门	大兴区,西红门	甜点饮品	面包甜点	面包甜点	35.0	010-50954003	1.0	404.0	24.0	659.09	6777.0	2.39538165769	0.153409090909	1.0426733278	314.515482672	0.811716927727	3.96437346437	0.0232476149069	0.00639718846558	1	4.5	4.35529426721	814	18.8311428571
28	blublu潮牛（北京宜家店）	127607173	76677602.0	大兴区西红门荟聚购物中心三层	39.78799	116.32688			西红门	大兴区,西红门	火锅	火锅	火锅	116.0	010-50954095	1.0	33.0	98.5	10130.32	883.0	2.33367837058	0.24427480916	0.277212868328	394.761667372	0.635565174469	3.14285714286	0.00618078341344	0.00802938145908	1	3.5	2.91561343798	70	87.3303448276
29	大咀港式茶餐厅（北京宜家店）	42555897	22875459.0	大兴区荟聚西红门购物中心三层（苏宁电器，金逸影城，InloveKTV）	39.78658	116.32604			西红门	大兴区,西红门	粤港菜	茶餐厅	茶餐厅	83.0	010-50954709	1.0	200.0	4.33333333333	41.3433333333	279.333333333	1.95643275385	0.0149253731343	0.204776916023	358.117504513	0.358527092934	2.84210526316	0.0045657395836	0.00728404576373	1	4.6	1.25932590333	38	0.498112449799
30	爱茜茜里意大利健康冰淇淋（北京宜家店）	40397339	22016053.0	大兴区欣宁大街15号购物中心荟聚，西红门购物中心.3-03-48-R	39.78814	116.32548			西红门	大兴区,西红门	甜点饮品	冰淇淋	冰淇淋	32.0	010-50954773	1.0	2.0	1171.33333333	123011.358333	105003.166667	2.26337624473	0.189189189189	0.194379460591	302.191576807	0.118260724934	1.65497076023	0.00433391621816	0.00614652243227	1	4.3	0.835604069555	1026	3844.10494791
31	PANKOO釜山料理（荟聚购物中心西红门店）	42583438	21593848.0	大兴区欣宁街15号荟聚购物中心3楼（宜家家居旁）	39.787777	116.32728			西红门	大兴区,西红门	日韩料理	烧烤	烧烤,韩国料理	80.0	010-50954829	1.0	344.5	1.75	191.005	121.0	1.97973942973	0.1625	0.186836470139	485.827312004	0.561521960405	2.76	0.0041657364704	0.00988164032564	1	5.0	2.46878666428	50	2.3875625
32	菜麻（鑫瑶印象）串串香	97703535	66502160.0	房山区良乡镇良乡大学城旭辉天地12号院2号楼134号（老3号楼）	39.722496	116.171265			良乡	房山区,良乡	火锅	串串香	串串香	63.0	010-50984008	1.0	64.8	0.333333333333	25.4933333333	31.6666666667	1.79400009783	0.25	0.124018742247	155.560495675	0.473778330079	2.64705882353	0.00276514214387	0.00316407256068	1	4.25740740741	1.39720479752	17	0.404656084656
33	鼎鑫烤动力主题音乐烤吧	98111699	66591623.0	房山区良乡大学城地铁站西行300米	39.722298	116.17204			良乡	房山区,良乡	烧烤烤肉	烧烤	烧烤	69.0	010-50984058	1.0	1542.8	35.1666666667	4563.005	2252.16666667	2.40269290267	0.0843373493976	0.684251960752	147.161351259	0.711291312626	3.6	0.0152561935351	0.0029932354708	1	4.86823956443	3.11597998787	160	66.1305072464
34	善道	97106166	66979340.0	房山区长虹东路大学城旭辉E天地	39.722206	116.17006			良乡	房山区,良乡	川湘菜	湘菜	湘菜	69.0	010-50984093	1.0	100.666666667	6.25	117.675	109.5	1.88358865018	0.0975609756098	0.225784030154	417.783477728	0.802819633895	3.5	0.00503411763318	0.00849764094956	1	4.92251655629	2.70726970978	18	1.70543478261
35	虾吃虾涮（良乡大学城店）	104647074	68215286.0	房山区书院南街12号院3号楼208（地铁良乡大学城站向西200米路口向南30米西侧）	39.722683	116.172035			良乡	房山区,良乡	火锅	火锅	火锅	63.0	010-50984433	1.0	636.0	158.25	20425.2325	979.0	2.16651545404	0.280276816609	0.440583265617	149.593967924	0.356137670795	2.23774509804	0.00982331648882	0.00304271445715	1	4.97547169811	2.60763557218	408	324.210039683
36	升旗餐厅	316533	4197994.0	东城区前门东大街甲2号	39.899452	116.40012			前门	东城区,西城区,前门	京菜鲁菜	北京菜	北京菜	49.0	010-51015188	1.0	5996.0	1.5	290.1975	148.25	1.75466015626	0.153846153846	0.0701379762768	637.095411873	0.26621637315	1.72727272727	0.00156380778078	0.0129584063261	1	4.55583722482	1.13030227279	44	5.92239795918
37	相福四季涮肉	313794	3438361.0	大兴区亦庄天华西路天华园二里三区5号楼(近东晶国际)	39.80011	116.49277			亦庄	大兴区,亦庄	火锅	涮羊肉	涮羊肉	81.0	010-51061359	1.0	899.2	57.3333333333	9050.58333333	913.166666667	2.20933308693	0.23137254902	0.506554662382	173.4228727	0.508342922391	2.95263157895	0.0112942255319	0.00352739010327	1	4.85480427046	3.09946246052	190	111.735596708
38	丁丁洋回转自助火锅（西红门店）	42122770	21610201.0	大兴区宏福路与新旺大街交叉口东北角鸿坤广场中心地下一层，永辉超市入口旁	39.79134	116.339836			西红门	大兴区,西红门	火锅	自助餐	自助餐,火锅,小火锅	40.0	010-51078051	1.0	3422.66666667	1064.5	43054.665	45747.75	1.95599879579	0.218181818182	0.154477666467	266.00904611	0.538699167616	3.02631578947	0.00344425929577	0.00541057625226	1	3.97543825477	2.52090268642	38	1076.366625
39	巴黎贝甜（鸿坤广场店）	68603230	24617753.0	大兴区宏福路鸿坤广场1层F24A25	39.79134	116.339836			西红门	大兴区,西红门	甜点饮品	甜品饮品	甜品饮品	53.0	010-51078912	1.0	838.666666667	22.0	1342.1525	498.25	2.22115640668	0.213675213675	0.27611669386	266.00904611	0.800444530651	4.26	0.00615634292835	0.00541057625226	1	4.71383147854	2.90552673454	50	25.3236320755
40	爱江山（双子座店）	368566	4526251.0	朝阳区建国门外大街乙12号双子座大厦东塔5楼	39.907654	116.449196			建外大街	朝阳区,建外大街,国贸	日韩料理	韩国料理	韩国料理,烧烤	178.0	010-51096036	1.0	609.0	19.5	4873.445	517.0	2.34973461007	0.162790697674	0.317251135293	481.410966822	0.635195657777	3.22972972973	0.00707348315661	0.00979181265732	1	3.8	2.92824803708	74	27.3789044944
41	好伦哥（六里桥餐厅）	1046180	2007472.0	丰台区六里桥亿客隆商城二层	39.879856	116.31224			六里桥/丽泽桥	丰台区,六里桥/丽泽桥	自助餐	自助餐	自助餐	51.0	010-51120552	1.0	10244.3333333	7027.25	495909.935	501722.5	2.44649247063	0.0397333333333	1.53416913431	360.476638211	0.538651311437	2.84192979015	0.0342060857272	0.00733203011972	1	3.79022223668	3.76121500679	20396	9723.72421569
42	蝎梁府（天竺镇店）	1661734	6235134.0	顺义区小天竺路国都大酒店西侧	40.048756	116.58903			首都机场	朝阳区,顺义区,首都机场	其他美食	其他	美食	74.0	010-51143117	1.0	184.0	1.0	139.825	135.0	1.99734334306	0.0	0.379689074127	100.581071724	0.805063057583	3.96551724138	0.00846560964423	0.0020458009457	1	5.0	2.36214283954	29	1.88952702703
43	百度烤肉（方庄南路店）	1471682	5499810.0	丰台区南三环方庄南路(成仪路口)	39.848495	116.439285			方庄	丰台区,方庄	烧烤烤肉	烧烤	烧烤	75.0	010-51146682	1.0	305.0	67.0	6164.0	1534.0	2.33079380688	0.11877394636	0.324833468347	310.617698607	0.563881695304	2.77678571429	0.00724254009345	0.0063179082373	1	4.3	3.22815308411	224	82.1866666667
44	味多美(鲁谷大街店)	6608938	17163080.0	石景山区黄庄村43号莲石路北区苗圃（玉泉路农副产皮交易市场四十号）	39.89813	116.24344			五棵松	海淀区,五棵松	甜点饮品	面包甜点	面包甜点	95.0	010-51170030	1.0	143.5	1660.0	294282.998	65211.0	2.25537420668	0.112412177986	0.59553991187	379.434343623	0.623354903758	3.30196078431	0.0132782551962	0.00771762644511	1	5.0	3.2205148905	255	3097.71576842
45	七星蒸尚游蒸汽海鲜餐厅	134715644	76848029.0	石景山区雕塑园南街玉鲁商厦西7号商铺	39.89756	116.24378			鲁谷	石景山区,鲁谷	海鲜	海鲜	海鲜	95.0	010-51170096	1.0	88.0	0.5	185.1	36.0	1.9177171894	0.0	0.0800557640823	347.936492817	0.451712464501	2.33333333333	0.00178493639842	0.00707696581323	1	4.9	1.66697432692	30	1.94842105263
46	阿田大虾火锅（鲁谷旗舰店）	5166497	15103232.0	石景山区雕塑园南街玉鲁商厦底商（近莲石路）	39.897808	116.24366			鲁谷	石景山区,鲁谷	火锅	火锅	火锅	71.0	010-51170177	1.0	17661.3333333	249.25	23004.965	16043.75	2.39791807347	0.222826086957	1.01770673134	444.104688307	0.537925729544	2.84380378657	0.0226909555922	0.00903300964838	1	4.74369621018	3.50513892429	2324	324.013591549
47	菇芳源香菇鸡（幸福大街店）	42646800	23672367.0	东城区幸福大街39-3（7天优品酒店隔壁）	39.889202	116.43039			天坛	东城区,天坛	小吃快餐	快餐简餐	快餐简餐	16.0	010-51205505	1.0	376.666666667	56.0	1151.17714286	2245.71428571	2.24146048565	0.225	0.382238441299	486.533342905	0.523377108335	2.74834437086	0.00852245075133	0.00989600086744	1	4.48	2.93414442343	151	71.9485714288
48	张老坎火锅（马家堡旗舰店）	113867186	70442910.0	丰台区西马场路6号院1号楼1单元商业1（角门东地铁站南（永辉超市斜对面））	39.84188	116.38488			大红门	丰台区,大红门	火锅	火锅	火锅	87.0	010-51223598	1.0	40.0	4.5	422.955	233.0	2.03366054814	0.244444444444	0.289642023579	353.598751958	0.7703764795	4.42424242424	0.00645790589005	0.00719213514785	1	3.6	2.6972091372	33	4.86155172414
49	朴家饭	1658586	5125351.0	大兴区亦庄经济技术开发区荣华中路7号国融国际底商	39.80117	116.50132			亦庄	大兴区,亦庄	日韩料理	韩国料理	韩国料理	48.0	010-51241084	1.0	1776.66666667	5.5	376.5	632.25	2.36396538255	0.0913043478261	0.453488975405	219.725022797	0.622639665511	3.01570680628	0.0101110643033	0.00446916752552	1	4.88360225141	2.92745167236	191	7.84375
50	品味快乐蛋糕（裕龙店）	5251111	23214382.0	顺义区裕龙一街裕龙四区33号楼	40.123306	116.66967			顺义	顺义区,顺义	甜点饮品	甜品饮品	甜品饮品	12.0	010-51241548	0.0	54.8571428571	1.875	264.92125	61.75	1.8189416077	0.196078431373	0.291514630747	162.589218243	1.02639307588	5.5	0.00649965784547	0.00330703551612	1	3.875	2.24297322644	14	22.0767708333
51	稻香村（裕龙店）	40313659	23214382.0	顺义区拥军路御龙四区33号楼底商	40.123306	116.66967			顺义	顺义区,顺义	甜点饮品	甜品饮品	甜品饮品	12.0	010-51241548	0.0	124.0	6.25	449.375	238.0	2.03399203458	0.114754098361	0.234310497127	162.589218243	0.787536235256	3.82142857143	0.00522422513416	0.00330703551612	1	4.7752688172	2.22245306403	28	37.4479166667
52	|蜀香石锅鱼|香辣大虾（苏家坨店）	6681869	10658859.0	海淀区苏家坨镇温阳路与北清路交叉口北拐进辅路200米（西小营南站）	40.072414	116.16096			海淀区	海淀区	火锅	鱼火锅	鱼火锅	51.0	010-51243393	1.0	2574.0	19.6666666667	1888.81666667	613.666666667	2.31600918028	0.225641025641	0.271291571362	4.54093284375	0.437249749208	2.45029239766	0.00604876120865	9.23617589957e-05	1	5.0	2.50832827391	171	37.0356209151
53	丽江龙记斑鱼庄（虎坊桥店）	52532149	24751701.0	西城区南横东街1-26号	39.883488	116.383675			虎坊桥	西城区,虎坊桥	火锅	鱼火锅	鱼火锅	120.0	010-51255563	1.0	792.0	47.0	9476.1525	1366.5	2.37316417843	0.219696969697	0.50709632665	499.831202202	0.642235905261	3.32911392405	0.011306302567	0.0101664769387	1	4.88484848485	3.34363026544	158	78.9679375
54	甜风集烘焙生活馆	4663734	93162987.0	丰台区西局西路58号院53号	39.869	116.43431			方庄	丰台区,方庄	甜点饮品	面包甜点	面包甜点		010-51281258	1.0	246.0	10.0	1335.86666667	260.666666667	2.2887234879	0.148648648649	0.199580409759	413.586264606	0.552326439438	2.95	0.00444987743074	0.00841227038801	1	4.7	2.15635595831	40	
55	花家怡园（四合院总店）	2424803	507755.0	东城区东直门内大街235号	39.94119	116.41897			北新桥/簋街	东城区,北新桥/簋街	京菜鲁菜	北京菜	北京菜	158.0	010-51283315	1.0	2240.8	1.2	87.392	29.8	1.90682810175	0.0967741935484	0.0793178922001	764.744076961	0.407733078848	2.29166666667	0.00176848468636	0.0155547572625	1	4.91119243127	1.63860372141	24	0.553113924051
56	花家怡园（东直门店）	262542	58730128.0	东城区东直门内大街5号（东直门桥往西150米路北）	39.94146	116.42919			东直门	东城区,东直门	京菜鲁菜	北京菜	北京菜	142.0	010-51283316	1.0	1520.8	13.5	3420.58166667	125.833333333	2.32621502857	0.0765027322404	0.323106467552	689.900685715	0.527518655177	2.78512396694	0.00720403460151	0.0140324561181	1	4.71988427144	2.70825215271	121	24.0886032864
57	花家怡园（八爷府王府井店）	1644313	5433994.0	东城区王府井东街8号澳门中心商场3楼（澳门中心里）	39.914806	116.41305			王府井/东单	东城区,王府井/东单	其他美食	北京菜	北京菜	193.0	010-51283326	1.0	1495.0	34.6666666667	12940.485	622.666666667	2.3757780988	0.0592885375494	0.403947788391	833.760938909	0.487985828841	2.44711538462	0.00900648590174	0.0169585478467	1	4.87357859532	2.46518501963	208	67.0491450777
58	花家怡园（世茂店）	541827	2655271.0	朝阳区建国路甲92号世茂大厦B座3楼301室（大望路西南侧）	39.907715	116.47121			国贸	朝阳区,国贸	京菜鲁菜	北京菜	北京菜	140.0	010-51283329	1.0	845.0	0.0	387.265	27.0	1.64702845285	0.0416666666667	0.0668635521762	403.611894754	0.745710065285	2.78571428571	0.00149080068594	0.00820939349552	1	4.2	2.24297322644	14	2.76617857143
59	面面聚道	5247746	9024926.0	东城区夕照寺中街29号北京黄河京都大酒店2层	39.88944	116.43699			广渠门	东城区,广渠门	其他美食	山西菜	山西菜	85.0	010-51335588	1.0	23.0	11.5	929.37	613.0	2.08636994364	0.0208333333333	0.0972598286761	459.896849948	0.543486384351	3.08333333333	0.00216852103403	0.00935421938165	1	5.0	1.78870626172	24	10.9337647059
60	伯牛记	90240612	57499944.0	丰台区珠江骏景北区底商2号楼101	39.85541	116.39683			洋桥/木樨园	丰台区,洋桥/木樨园	烧烤烤肉	烧烤	烧烤	89.0	010-51363656	1.0	44.0	1.0	90.0	160.0	1.97120451384	0.0757575757576	0.233741383797	431.335533845	1.3080996052	7.5	0.00521153609036	0.00877328733855	1	3.9	2.36938211969	12	1.01123595506
61	果麦De鲜饮创作（万寿路店）	1539714	5861902.0	海淀区复兴路51号凯德晶品购物中心B1-42	39.90812	116.29717			公主坟/万寿路	海淀区,公主坟/万寿路,五棵松	甜点饮品	甜品饮品	甜品饮品	12.0	010-51452008	1.0	951.5	1023.6	8542.954	21866.2	2.33001675316	0.161094224924	1.08115997746	748.232410112	0.868383777823	5.02686567164	0.0241057195369	0.0152189129224	1	5.0	4.18559746883	335	711.912833333
62	吃货锅物料理	6533060	21024073.0	海淀区交大东路46号	39.950287	116.34882			北下关	海淀区,北下关	火锅	韩国料理	韩国料理,火锅	49.0	010-51562910	0.0	8954.66666667	94.5	7914.4525	3052.75	2.33893785796	0.201117318436	0.693937109975	534.905649714	0.491160164299	2.63177998472	0.0154721352049	0.0108798849057	1	5.0	3.1921144708	1309	161.519438776
63	吃货爽爆的四川盐帮兔火锅	40717074	21024073.0	海淀区交大东路与交通大学路交口东南江边城外烤鱼东20米	39.950287	116.34882			北下关	海淀区,北下关	日韩料理	韩国料理	韩国料理,火锅	49.0	010-51562910	0.0		16.0	1248.0	159.0	2.24392827481	0.0754716981132	0.0787828997745	534.905649714	0.649384071583	3.05263157895	0.00175655640781	0.0108798849057	1	5.0	1.98792210201	38	25.4693877551
64	红色江山	276370	2010655.0	海淀区北大街60号首钢国际大厦1-3楼（西直门桥东北角）	39.945503	116.357216			北下关	海淀区,北下关	粤港菜	粤菜馆	粤菜馆,湘菜	268.0	010-51565555	1.0	420.0	14.3333333333	1641.18333333	578.0	2.05022618873	0.0526315789474	0.083916723315	544.00048672	0.598932449077	2.44444444444	0.00187102097642	0.0110648722579	1	4.38514285714	2.06086124945	27	6.12381840795
65	大鸭梨烤鸭店（怀柔店）	99574515	2067730.0	怀柔区迎宾中路40号	40.32048	116.63761			怀柔区	怀柔区	京菜鲁菜	烤鸭	烤鸭	98.0	010-51591666	1.0	1408.0	440.25	90689.73	16133.25	2.41316410589	0.0710128055879	0.844377658804	127.572066405	0.574490957413	2.94421768707	0.018826382266	0.00259479293292	1	4.67604166667	3.45091175334	735	925.405408163
66	鸿兆轩	5483233	13823191.0	怀柔区迎宾中路2号南楼	40.309563	116.63938			东关	怀柔区,东关	京菜鲁菜	烤鸭	烤鸭	73.0	010-51593300	1.0	14.0	84.0	7392.0	552.5	1.92024698333	0.0882352941176	0.240944539712	71.2200304806	0.605491978324	3.02380952381	0.00537213883176	0.00144860263678	1	3.8	2.4989388649	42	101.260273973
67	食空猎人炙烤屋	41969720	22466370.0	海淀区中关村南大街2号，华宇时尚购物中心4层	39.965652	116.32309			中关村	海淀区,中关村	烧烤烤肉	烧烤	烧烤	78.0	010-51626191	1.0	645.0	27.0	1210.0	381.0	2.25093751304	0.0882352941176	0.228624505666	465.48386868	0.672936685124	3.5652173913	0.00509744933938	0.00946785833985	1	4.5	2.64966199568	46	15.5128205128
68	七八冷面｜延边朝鲜族美食（华宇店）	4244200	24846629.0	海淀区中关村南大街2号华宇时尚购物中心夹层	39.96533	116.32326			双榆树	海淀区,双榆树	其他美食	其他中餐	中餐	38.0	010-51626470	1.0	3924.0	82.5	5109.225	9672.0	2.3697198042	0.0315599639315	0.945455732113	493.33438033	0.666303849963	3.12567049808	0.0210800355064	0.010034332748	1	5.0	3.75369118457	1305	134.453289474
69	8000M烤鱼（原黑森林餐厅）	295222	2779609.0	海淀区中关村南大街2号，数码大厦B座华宇时尚购物中心4楼（原黑森林烤鱼）	39.965652	116.32309			中关村	海淀区,中关村	川湘菜	烤鱼	烤鱼	79.0	010-51627566	1.0	912.0	47.0	4748.00666667	1414.33333333	2.32394413336	0.108695652174	0.318741479509	465.48386868	0.637099290486	2.97452229299	0.00710671211479	0.00946785833985	1	5.0	3.20450605394	157	60.101350211
70	彤顺德海鲜火锅（丰台店）	96626191	66485439.0	丰台区大红门久敬庄路嘉合久源超市二层	39.821953	116.406235			大红门	丰台区,大红门	火锅	火锅	火锅,海鲜	92.0	010-51659889	1.0	246.6	15.5	2457.66333333	251.5	2.08342352589	0.287356321839	0.22660682875	208.991679665	0.566587980329	3.3125	0.00505246288513	0.00425085325274	1	4.47445255474	2.59409809774	48	26.713731884
71	溪塘之语	6048634	17922601.0	东城区王府井大街301号新燕莎金街购物广场MF703号	39.90999	116.41035			王府井/东单	东城区,王府井/东单	创意菜	创意菜	创意菜	84.0	010-51661556	1.0	148.4	52.5	4657.12333333	1849.33333333	2.3604203593	0.0	0.227218777949	794.716509974	0.431470408866	2.23602484472	0.00506610700448	0.0161643911702	1	4.87628032345	2.12633444839	161	55.4419444444
72	汉拿山（搜秀店）	368215	4509884.0	东城区崇文门外大街40号搜秀商城6楼	39.89619	116.41934			崇文门	东城区,崇文门	日韩料理	烧烤	烧烤	93.0	010-51671026	1.0	1615.2	404.833333333	36919.5216667	9025.66666667	2.362114	0.0851063829787	0.744818253911	1227.49658406	0.622979639505	3.06768189509	0.0166065895049	0.0249670601981	1	4.78179791976	3.53898803618	591	396.984103943
73	yomi冻酸奶（崇文门店）	52575457	24916910.0	东城区崇文门搜秀购物广场1层	39.89642	116.41935			崇文门	东城区,崇文门	甜点饮品	甜品饮品	甜品饮品	21.0	010-51671153	1.0	1163.2	100.833333333	1445.76166667	3451.83333333	2.29158229498	0.150066401062	1.69924032953	831.087782719	0.805344282491	5.92054794521	0.0378865400714	0.0169041763296	1	4.93500687758	4.00386903026	365	68.845793651
74	恭敬李麻辣香锅（搜秀店）	355628	4169645.0	东城区崇文门外大街40号搜秀城2楼（近羊市口）	39.896145	116.419365			崇文门	东城区,崇文门	川湘菜	香锅	香锅	68.0	010-51671186	1.0	1260.0	257.5	25400.0	2816.5	2.34357272992	0.106060606061	0.381415410915	1145.06187096	0.692296855257	3.5504587156	0.00850410033138	0.0232903529296	1	4.5	3.23749343513	109	373.529411765
75	四季大盘涮肉（鲁谷店）	42097993	27423263.0	石景山区鲁谷路与翠园西街东南角（石景山医院东门往南十字口口东南日东升商务置业底商）	39.90353	116.21468			鲁谷	石景山区,鲁谷	火锅	涮羊肉	涮羊肉	89.0	010-51713292	1.0	5982.57142857	41.375	5704.12375	1768.75	2.13166672563	0.243243243243	0.577314694296	374.200633569	0.764819018489	4.66037735849	0.0128719027668	0.007611173722	1	4.96810735947	2.66106119025	53	64.0912780899
76	江边石锅巫山烤全鱼	2582706	17966301.0	西城区广外大街荣丰小区2008九号楼底商	39.895695	116.33578			王府井/东单	东城区,西城区,王府井/东单,广外大街	川湘菜	烤鱼	烤鱼	60.0	010-51766278	1.0	5225.0	93.0	7974.0	1870.0	2.34889738827	0.109660574413	0.45248761091	458.322703785	0.507267219861	2.58542713568	0.0100887377168	0.00932220153123	1	4.2	2.85887361362	398	132.9
77	湘水之珠（首体南路店）	525876	1940608.0	海淀区首体南路22号国兴大厦2层	39.933037	116.32679			航天桥	海淀区,航天桥	川湘菜	湘菜	湘菜	127.0	010-51776688	1.0	1310.0	11.5	3723.745	631.0	2.37385379037	0.138655462185	0.601474394691	453.631476621	0.673571688514	4.20833333333	0.0134105713949	0.00922678281275	1	4.2	3.11487798092	96	29.3208267717
78	乌巢比萨主义主题餐厅（五道口店）	4338087	16970509.0	海淀区中关村东路8号 东升大厦2层（近卜蜂莲花）	39.99349	116.333954			五道口	海淀区,五道口	西餐	比萨	比萨	82.0	010-51779668	1.0	715.0	364.0	34595.9566667	10947.6666667	2.43609968737	0.0512552301255	0.915732175744	466.241499336	0.677265860765	3.33507306889	0.0204173142363	0.0094832684114	1	5.0	3.81078487703	958	421.90191057
79	城一锅羊蝎子火锅	4782821	17753633.0	海淀区京铁家园2区5号楼底商9号	39.893356	116.2807			五棵松	海淀区,五棵松	火锅	羊蝎子	羊蝎子	78.0	010-51801251	1.0	465.0	10.0	1258.545	717.0	2.21405333414	0.265151515152	0.226888720364	289.963439706	0.463993134402	2.39316239316	0.00505874798663	0.00589780431846	1	4.8	2.63819451595	117	16.1351923077
80	万聚鱼府	5124651	13885938.0	石景山区吴庄西富港商业中心,汉庭酒店1楼	39.890675	116.23121			鲁谷	石景山区,鲁谷	川湘菜	烤鱼	烤鱼,火锅	62.0	010-51811664	1.0	951.666666667	40.5	3979.0275	664.75	2.11661746905	0.114503816794	0.326570565156	242.800256658	0.532112434511	2.552	0.00728127068778	0.00493851364051	1	4.25569176883	2.67306991802	125	64.1778629032
81	漫食代火锅（西翠路店）	40948460	21756678.0	海淀区西翠路与朱各庄路交口（瑞成大酒店对面）	39.919155	116.28363			公主坟/万寿路	海淀区,公主坟/万寿路	火锅	火锅	火锅	79.0	010-51823991	1.0	210.666666667	56.5	4980.3375	1194.5	2.24136242079	0.198473282443	0.184502002525	333.43862001	0.527525724913	2.6	0.004113686799	0.00678208168253	1	4.90696202532	2.64434272339	105	63.0422468354
82	北京铁道大厦酒店（川云阁餐厅）	1652441	2339803.0	海淀区北蜂窝路102号(近北京西客站)	39.900414	116.32497			公主坟/万寿路	海淀区,公主坟/万寿路	自助餐	自助餐	自助餐	154.0	010-51879171	1.0		8.0	3063.5	85.0	2.27624178919	0.12	0.134543196615	436.980339547	0.494559110538	3.11538461538	0.00299979709833	0.00888810167334	1	4.7	1.78374665434	26	19.8928571429
83	福泰宫	515081	511777.0	丰台区西客站南广场中铁工程大厦1-3楼	39.8901	116.32035			六里桥/丽泽桥	丰台区,六里桥/丽泽桥	江浙菜	海鲜	海鲜	143.0	010-51892677	1.0	1026.66666667	75.25	7901.48	2892.75	2.24780697516	0.00653594771242	0.253755698043	422.797117955	0.52021353798	2.34090909091	0.00565777851147	0.00859961749189	1	4.80519480519	2.44307045657	132	55.2551048951
84	必胜客（光明楼店）	264702	512350.0	东城区光明路13号天玉大厦1楼西侧	39.884705	116.43674			左安门	东城区,左安门	西餐	比萨	比萨	75.0	010-51902159	1.0	0.0	35.0	4130.0	808.0	2.38707965482	0.0796019900498	0.101706445441	468.416111033	0.105804464227	1.30911330049	0.00226766352807	0.009527499623	1	3.8	0.74040592468	812	55.0666666667
85	愚掌门鱼火锅（光明楼店）	40578157	23720285.0	东城区光明路11号天玉大厦底商	39.884544	116.437164			光明楼/龙潭湖	东城区,光明楼/龙潭湖	火锅	鱼火锅	鱼火锅	116.0	010-51902195	1.0	306.0	21.3333333333	1919.695	989.5	2.2752223191	0.1875	0.240558850055	467.538065873	0.514874233235	2.87755102041	0.00536353943214	0.00950964034205	1	4.90392156863	2.68348979591	98	16.5490948276
86	田源鸡火锅（劲松桥店）	280750	2291098.0	朝阳区南磨房路37号华腾北塘商务大厦-201室（南磨房路口）	39.88488	116.46721			劲松/潘家园	朝阳区,劲松/潘家园	火锅	火锅	火锅	76.0	010-51908955	1.0	5968.0	151.0	15582.545	10457.5	2.35901920547	0.211123723042	1.03797403874	376.941635953	0.602027395964	3.21656686627	0.0231428387899	0.00766692521851	1	5.0	3.89080514504	1002	205.033486842
87	辣池老灶火锅	95338982	66271431.0	海淀区羊坊店东路北京铁道大厦西北铁医路一号院旁乡土人家后	39.90092	116.32328			军博	海淀区,军博	火锅	重庆火锅	重庆火锅	72.0	010-51915556	1.0	892.0	217.0	35750.0	500.5	2.16213047544	0.269372693727	0.321703940951	429.31854488	0.333108519205	2.16501650165	0.00717276363921	0.00873226214502	1	4.8	2.2483580595	303	496.527777778
88	粥立方（中雅店）	6524538	14713848.0	海淀区北蜂窝8号中雅大厦主楼南侧东厅一层(近中土大厦)	39.898815	116.33388			公主坟/万寿路	海淀区,公主坟/万寿路	小吃快餐	粥店	粥店	39.0	010-51918111	1.0	5736.0	1784.66666667	76851.69	43156.0	2.46557473988	0.169811320755	1.10433837704	451.098069682	0.537959057478	2.98026835043	0.0246225089218	0.00917525377031	1	5.0	3.86440474841	2534	1970.55615385
89	极度披萨	42206305	22371898.0	西城区广安门外大街305号院荣丰2008小区16号楼底商	39.893856	116.33616			广外大街	西城区,广外大街	西餐	比萨	比萨	40.0	010-51930307	1.0	206.666666667	1.33333333333	147.39	174.0	2.0400882358	0.109375	0.0954041544779	469.165735739	0.535243338545	2.64285714286	0.00212714661886	0.00954274685498	1	4.56612903226	2.4329248477	42	3.68475
90	怡新韩林烤肉（广外店）	1149965	5131383.0	丰台区广安门外大街305号荣丰2008 17号楼（地铁7号线达官营B口 国家话剧院北侧100米红绿灯东北角）	39.89353	116.33534			广外大街	西城区,广外大街	日韩料理	韩国料理	韩国料理,烧烤	102.0	010-51932818	1.0	327.666666667	17.0	1174.98	125.25	2.06399974116	0.113636363636	0.0697321692068	465.548330429	0.684416578051	3.35	0.00155475984003	0.00946916948025	1	4.92614445575	2.00698121375	20	11.5194117647
91	广运饭店	2478397	16219945.0	西城区广安门外大街甲122号	39.888287	116.34399			广外大街	西城区,广外大街	其他美食	其他中餐	中餐	78.0	010-51933566	1.0	117.2	6.5	1412.96	230.5	2.35950953066	0.043956043956	0.406183213486	478.836855923	0.555387346323	3.17272727273	0.00905632730496	0.00973945570366	1	4.36313993174	2.26816389583	110	18.1148717949
92	汉拿山韩式石锅拌饭（官园店）	750611	2774827.0	西城区车公庄大街4号官园商品批发市场1楼西北角（车公庄桥西侧）	39.932003	116.350845			阜成门	西城区,阜成门	日韩料理	韩国料理	韩国料理,烧烤	33.0	010-51954233	1.0	2446.0	498.0	17294.26	3339.25	2.33467037842	0.105651105651	0.734586611462	528.399766317	0.763702715919	4.54497354497	0.0163784631328	0.0107475564051	1	4.40155355683	3.80493367574	189	524.068484848
93	亮健容天土锅羊蝎子（欢乐谷店）	3278503	3373897.0	朝阳区金蝉南里4号楼11号底商(近华侨城公交车站)	39.86141	116.50078			十八里店	朝阳区,十八里店	火锅	羊蝎子	羊蝎子	76.0	010-52031840	1.0	428.333333333	144.75	13022.0775	2387.25	2.26419415065	0.227722772277	0.280926702798	183.452712305	0.55297993195	2.82485875706	0.00626358767368	0.0037313952406	1	4.67392996109	3.23173835624	177	171.343125
94	当代MOMA S0餐厅	5341036	13665513.0	朝阳区香河园路1号当代MOMA内S0号楼	39.950825	116.438644			东直门	东城区,东直门	创意菜	创意菜	创意菜,川菜/家常菜	175.0	010-52049688	1.0	87.3333333333	5.0	820.686666667	209.333333333	1.21279128929	0.0	0.231223812278	486.221130443	0.718209949336	3.63636363636	0.00515540390436	0.009889650522	1	4.84122137405	1.42057192595	11	4.68963809524
95	百荷轩私家菜	280369	2267248.0	朝阳区北苑路82号时腾商务酒店	40.00225	116.41799			大屯	朝阳区,大屯	创意菜	家常菜	家常菜	69.0	010-52055389	1.0	795.0	21.6666666667	2182.25	487.333333333	2.28840426065	0.0	0.214389506476	316.285397753	0.628105102598	3.1875	0.00478006347121	0.00643318822064	1	4.4	2.19470318546	48	31.6268115942
96	窑啊窑窑炉烧烤（世贸天阶店）	110280229	69409913.0	朝阳区光华路甲9号世贸天阶北区B1层	39.916153	116.45215			朝外大街	朝阳区,朝外大街	烧烤烤肉	烧烤	烧烤	90.0	010-52061013	1.0	44.0	24.0	2271.895	1469.0	2.28659985265	0.102040816327	0.244773033678	519.316413301	0.57566460742	2.75789473684	0.00545749955887	0.0105628026351	1	5.0	2.62296464722	95	25.2432777778
97	分米鸡（世贸天阶店）	118118317	69700957.0	朝阳区光华路9号世贸天阶B1	39.916267	116.453354			朝外大街	朝阳区,朝外大街	日韩料理	韩国料理	韩国料理	89.0	010-52061018	1.0		20.0	4080.0	191.0	2.35874734539	0.111576011158	0.464742034846	515.189080312	0.296272408212	2.02597402597	0.0103619643555	0.0104788534229	1	5.0	2.10602260867	1309	45.8426966292
98	虾吃虾涮（朝阳大悦城店）	40199098	21939036.0	朝阳区青年路国美第一城餐饮街2号院九号楼二层（京客隆旁）	39.934177	116.51328			青年路	朝阳区,青年路	火锅	火锅	火锅	75.0	010-52067394	1.0	3116.0	96.0	15590.0	1855.0	2.32013716321	0.240938166311	0.487397011818	218.612104618	0.466902039856	2.86734693878	0.0108670834243	0.00444653096953	1	4.6	3.24032812594	490	207.866666667
99	珍菇源野生菌火锅（望京店）	1048776	2835790.0	朝阳区望京湖光中街与望京西路交叉口，工商银行楼上(近城铁望京西站)	39.996437	116.45681			望京	朝阳区,望京	云贵菜	云南菜	云南菜,火锅	134.0	010-52098497	1.0	419.8	8.6	1180.644	294.0	2.16907471099	0.0121951219512	0.316935805077	270.357218747	0.835792393456	3.67567567568	0.00706645250258	0.00549901730325	1	4.9135302525	2.82309529851	37	8.8107761194
100	妮莱肯	41890873	22894049.0	大兴区五爱屯西街25号（乐来乐市场旁，西宏苑小区西南）	39.79886	116.37751			西红门	大兴区,西红门	西餐	西餐	西餐	17.0	010-52126535	1.0	126.0	8.0	141.745	392.0	1.92811528686	0.108695652174	0.105546649121	149.538622562	0.427266804277	2.19512195122	0.00235328533687	0.00304158874242	1	5.0	1.7508429052	41	8.33794117647
101	鑫味道	298293	2895550.0	顺义区南法信顺沙路东海洪段18号	40.140274	116.61898			顺义区	顺义区	京菜鲁菜	烤鸭	烤鸭	197.0	010-52130333	1.0	84.0	7.5	1299.5	68.5	2.13902624966	0.0777777777778	0.488519422394	137.138610636	0.98040617821	4.89285714286	0.0108921088739	0.0027893747255	1	4.4	2.68856784251	28	6.59644670051
102	绿谷渔阳海鲜城	2731529	8938916.0	顺义区西海洪红绿灯路口	40.14093	116.617676			顺义区	顺义区	海鲜	海鲜	海鲜	139.0	010-52130705	1.0	136.666666667	7.0	1053.385	200.5	1.89232257924	0.03125	0.292199929536	121.614081691	0.782030208162	3.68965517241	0.00651493737926	0.00247360859323	1	4.4156097561	2.63759529353	29	7.57830935252
103	王婆大虾（李桥店）	110906180	74608849.0	顺义区李桥镇李桥村通顺路沿河路口北侧20米	40.034966	116.673935			顺义区	顺义区	火锅	火锅	火锅	91.0	010-52132900	1.0	15.0	1.0	142.308333333	62.3333333333	1.83453974762	0.304347826087	0.105979703731	26.7683495775	0.351457513066	2.08	0.00236294079323	0.00054446342579	1	4.3	1.59404570421	25	1.56382783882
104	彤顺德海鲜火锅（顺义海洪店）	350462	20943563.0	顺义区顺沙路商业街7-2号（卧龙环岛西侧）	40.139763	116.624664			顺义	顺义区,顺义	火锅	火锅	火锅,海鲜	97.0	010-52134777	1.0	928.0	12.1666666667	1499.27333333	1015.66666667	2.31621436506	0.241258741259	0.784276998254	127.805905242	0.746012010948	4.01092896175	0.017486368117	0.00259954917291	1	4.5524137931	3.82514412125	183	15.4564261168
105	三江三味灶台鱼	96656159	66967183.0	顺义区天竺镇天柱东路二十里铺村	40.078983	116.5681			首都机场	朝阳区,顺义区,首都机场	其他美食	海鲜	海鲜	84.0	010-52139186	1.0	109.2	28.3333333333	4351.47333333	211.666666667	1.94345501968	0.041095890411	0.241509210389	81.5937308377	0.470053107453	2.59615384615	0.00538472882144	0.00165960184009	1	4.87142857143	1.90405903898	52	51.8032539682
106	江南公社	92136775	91684941.0	顺义区天竺镇府前二街13号（中国石油加油站对面）	40.06456	116.57652			顺义区	顺义区	川湘菜	家常菜	家常菜		010-52139398	1.0	200.0	3.5	294.0	116.5	2.11623067755	0.134328358209	0.334439087526	122.234184593	0.734461508825	4.65	0.00745670854839	0.00248622137496	1	4.3	2.16395565688	20	
107	海蒸鲜蒸汽海鲜	100589158	67871455.0	顺义区顺沙路世纪便民商务宾馆旁	40.139774	116.622185			顺义	顺义区,顺义	海鲜	海鲜	海鲜	145.0	010-52153003	1.0	41.6666666667	20.0	2184.9525	279.0	2.30070693851	0.0161290322581	0.912506692659	130.236407123	0.894969620012	4.70629370629	0.0203453983383	0.00264898514492	1	4.9272	3.56379947598	143	15.068637931
108	湘福林毛家菜馆	1649635	54029877.0	朝阳区东土城路林达大厦A座1楼8号（近建材经贸大厦）	39.95581	116.43262			左家庄	朝阳区,左家庄	川湘菜	湘菜	湘菜	75.0	010-52187205	1.0	88.0	15.0	1388.14333333	683.666666667	2.20791451416	0.0865384615385	0.237440811946	477.685301831	0.467665891602	2.96551724138	0.00529401914492	0.00971603330011	1	5.0	1.94546289746	58	18.5085777777
109	我家后厨	51118350	48548136.0	通州区玉桥街道潞阳桥西路花石匠东区旁	39.87625	116.7016			通州区	通州区	其他美食	私房菜	私房菜		010-52290988	1.0	16.0	2.33333333333	228.79	86.0	1.73555996829	0.0526315789474	0.187559869126	153.373309026	0.762177415711	3.09090909091	0.00418186549244	0.00311958557682	1	4.6	1.97224697942	11	
110	巴渝情巫山烤全鱼	2442249	20909806.0	丰台区大成路青塔五街海友客栈1楼底商南侧	39.888794	116.25693			青塔	丰台区,青塔	川湘菜	香锅	香锅,烤鱼	70.0	010-52293584	1.0	271.333333333	7.33333333333	770.266666667	306.0	2.09631776597	0.09375	0.142077239505	405.067008046	0.539426594642	2.47272727273	0.00316777734979	0.0082389902387	1	3.99238329238	2.24432294023	55	11.0038095238
111	嗨森庄园不一样的串吧	40523923	23314566.0	通州区翠屏西路102号，格瑞雅居西门	39.885612	116.643456			果园	通州区,果园	烧烤烤肉	烧烤	烧烤	92.0	010-52293823	1.0	362.0	43.5	4608.245	437.5	2.35549862131	0.0726643598616	0.800074830018	215.487347173	0.838842703487	4.65765765766	0.0178385991556	0.00438297396395	1	4.87403314917	3.31304463272	111	50.0896195652
112	东方雅尔塔西餐	1514984	6427617.0	朝阳区东三环中路双花园南里二区11号楼1楼5号（双井麦乐迪Ktv向西1公里）	39.89893	116.4517			双井	朝阳区,双井	西餐	西餐	西餐	81.0	010-52293887	1.0	695.0	2.5	415.0875	269.5	2.2753330651	0.0945945945946	0.354617397329	468.5361518	0.611976864626	3.0987654321	0.00790660744123	0.00952994123067	1	4.67791366906	2.57270797657	81	5.12453703704
113	香久香春饼东北菜（马坡建行店）	40549646	21677591.0	顺义区顺安北路马坡建设银行往西150米，佳和宜园北门正对面	40.176235	116.649826			马坡牛栏山	顺义区,马坡牛栏山	东北菜	东北菜	东北菜	25.0	010-52297818	1.0	42.0	3.0	264.3	73.3333333333	1.48736117645	0.0434782608696	0.13489735848	140.600448888	0.75561329356	2.92307692308	0.00300769354913	0.00285978789419	1	3.8	2.13839724635	13	10.572
114	坦坦大炉（望京店）	2374348	6847354.0	朝阳区湖光中街甲6号港旅大厦2层（近教文大酒店）	39.9968	116.46435			望京	朝阳区,望京	日韩料理	韩国料理	韩国料理	121.0	010-52298295	1.0	6713.33333333	356.5	46056.485	8272.25	2.40747733072	0.102864583333	0.785370351203	846.007281545	0.616253993348	3.01814882033	0.017510745693	0.0172076362579	1	4.92047666336	3.8090008586	1102	380.632107438
115	汉堡王（北京鲁谷路店）	92426190	58050643.0	石景山区鲁谷路68号京西珠宝城一层,营业时间:10:00—22:00	39.9036	116.24679			鲁谷	石景山区,鲁谷	小吃快餐	西式简餐	西式简餐	36.0	010-52298500	1.0	0.0	542.0	6768.83333333	16430.3333333	2.39005026538	0.228155339806	0.78758154453	280.56104519	0.357982592621	2.52816584047	0.0175600468208	0.00570656130162	1	4.0	2.18883727866	2219	188.023148148
116	老城一锅（东坝奥园店）	4497768	23192586.0	朝阳区东坝中路奥林匹克花园底商	39.959503	116.5466			东坝	朝阳区,东坝	火锅	火锅	火锅	82.0	010-52320855	1.0	3584.0	5.0	1469.595	298.0	2.19768699877	0.2	0.112969563773	90.2301571847	0.433177645154	2.35211267606	0.00251878785499	0.00183526520184	1	3.7	2.39767776091	71	17.9218902439
117	老高家刀削面（洋桥店）	2411939	8039671.0	丰台区海户西里14-4号（近云彩屋洋桥店）	39.85496	116.38722			洋桥/木樨园	丰台区,洋桥/木樨园	小吃快餐	小吃快餐	小吃快餐,粉面馆	64.0	010-52369793	1.0	462.0	13.4	1165.976	405.2	2.30587650404	0.181818181818	0.299364382166	539.87309621	0.671804301814	3.22413793103	0.00667467718588	0.0109809218758	1	4.7	2.9796286279	58	18.218375
118	韩润秀碳烤牛排	6863864	21340544.0	通州区九棵树中路998商号（大马庄桃花岛底商）	39.86768	116.657776			梨园	通州区,梨园	西餐	牛排	牛排	86.0	010-52400385	1.0	906.666666667	21.5	2639.265	934.5	2.32972743955	0.0494505494505	0.476911598261	343.570549013	0.705603185105	3.44444444444	0.0106332989301	0.00698816329988	1	4.47352941176	3.09842467981	117	30.689127907
119	兴旺居过桥米线（过桥米线）	41526929	23513835.0	昌平区东小口镇天通西苑一区南门兴旺地市场内	40.061127	116.410286			天通苑	昌平区,天通苑	小吃快餐	粉面馆	粉面馆,小吃快餐	16.0	010-52400796	1.0	96.0	6.0	139.4	143.0	1.70421527233	0.27868852459	0.288299346452	321.991497476	0.661628513518	4.0	0.0064279693414	0.00654924926483	1	3.4	2.67402098313	25	8.7125
120	善生坊（回龙观店）	2523567	9618591.0	昌平区回龙观西大街龙冠置业大厦	40.07433	116.31979			回龙观	昌平区,回龙观	甜点饮品	面包甜点	面包甜点	98.0	010-52402870	1.0	14058.6	117.0	12416.5066667	3771.33333333	2.37867598883	0.149082568807	0.389517736926	211.549698164	0.357271350991	1.99284862932	0.00868475111617	0.00430288288988	1	4.82580769067	2.25218312814	839	126.699047619
121	嘉和一品粥（丰葆路店）	99394679	66077054.0	丰台区丰葆路23号智慧广场一层101室108号	39.81597	116.28996			丰台区	丰台区	其他美食	粥店	粥店	39.0	010-52406200	1.0	306.0	11.5	347.75	515.0	2.05244492746	0.0701754385965	0.108302675013	239.281271842	0.529732277038	2.27272727273	0.00241473414054	0.00486693812097	1	4.2	2.40866744758	55	8.91666666667
122	京味斋（亚运村鸟巢店）	105143512	68051240.0	朝阳区慧忠路亚运村安慧里2区4号楼	39.99465	116.410164			亚运村	朝阳区,亚运村	京菜鲁菜	北京菜	北京菜	83.0	010-52406320	1.0	385.0	2083.5	222346.0	87232.5	2.30934496477	0.0787401574803	0.379174657625	401.084983794	0.45750191138	2.62443438914	0.00845414012984	0.00815799658013	1	5.0	2.74167147358	221	2678.86746988
123	猫眼披萨（顺义店）	99758508	66542159.0	顺义区站前北街56号（国泰宜宾商场2楼）	40.133183	116.64728			顺义	顺义区,顺义	西餐	西餐	西餐	45.0	010-52409008	1.0	2325.33333333	63.25	4902.555	1879.5	2.33404787034	0.0566801619433	1.90100262182	322.636152475	1.02737419002	5.35309278351	0.0423850651115	0.0065623614318	1	4.81422018349	4.55692451835	388	108.945666667
124	王小二火锅	40741858	23630297.0	平谷区海关西园红绿灯西南角滨河市场院内	40.13631	117.08848			平谷区	平谷区	烧烤烤肉	烧烤	烧烤,火锅	48.0	010-52413412	1.0	7.0	1.5	132.0	144.0	1.77394639668	0.08	0.0821756371841	32.9209417853	0.801288488442	2.86666666667	0.00183220143552	0.000669606046976	1	4.46666666667	2.48832774337	15	2.75
125	奇豆之恋奶茶	5800448	21559127.0	大兴区荣华南路中冀斯巴鲁大厦B座内	39.78461	116.51779			亦庄	大兴区,亦庄	甜点饮品	甜品饮品	甜品饮品	10.0	010-52420839	1.0	44.0	5.5	37.67	230.0	1.16622625419	0.416666666667	0.0274216050994	178.901974943	0.239140654647	1.85714285714	0.000611396588441	0.00363883405945	1	4.4	0.994353691762	14	3.767
126	湘鄂汇	1658492	5737797.0	丰台区大井村89号（近体育中心）	39.86889	116.27107			卢沟桥	丰台区,卢沟桥	川湘菜	湘菜	湘菜	44.0	010-52423699	1.0	28.0	2.0	180.0	105.0	1.55538895604	0.0	0.0712558542262	213.788686935	0.711080918484	2.53333333333	0.00158873217022	0.00434842351961	1	3.6	2.17157089696	15	4.09090909091
127	老诚一锅（学清路店）	4847866	4657978.0	海淀区学清路41号底商（裕京大厦一楼，近中国农业大学西门）	40.00491	116.352036			五道口	海淀区,五道口	火锅	羊蝎子	羊蝎子	79.0	010-52429337	1.0	10903.3333333	149.25	18217.515	9448.5	2.33236889285	0.246540880503	0.709904073158	351.194698298	0.474212402326	2.60994397759	0.0158281372253	0.00714323712791	1	4.61296239682	3.35518275514	1428	230.601455696
128	九牛一涮潮汕鲜牛肉火锅	117920843	75124069.0	房山区拱辰南大街瑞城（京良生活广场）三层	39.72985	116.141716			良乡	房山区,良乡	火锅	火锅	火锅	119.0	010-52433678	1.0	59.6666666667	2.0	222.145	41.3333333333	1.80262820967	0.341463414634	0.213697383398	858.372179951	0.486527757231	2.8	0.00476463178194	0.0174591360721	1	4.73351955307	2.16380190484	25	1.86676470588
129	一口海鱼耗儿鱼火锅（簋街店）	98430002	65483113.0	东城区东直门内大街228号	39.94077	116.41976			北新桥/簋街	东城区,东直门,北新桥/簋街	火锅	火锅	火锅,川菜/家常菜	100.0	010-52433862	1.0	50.0	96.8333333333	8903.91666667	3108.66666667	2.34002391102	0.274509803922	0.325539483912	1088.61496727	0.559101165856	3.02158273381	0.00725828153187	0.0221422330402	1	4.756	3.13934986659	139	89.0391666667
130	七辛客重庆小面（王府井银泰in88店）	99634214	58502075.0	东城区王府井大街88号王府井银泰in88B1层（王府井教堂）	39.915894	116.41166			王府井/东单	东城区,王府井/东单	小吃快餐	小吃快餐	小吃快餐,粉面馆	23.0	010-52435938	1.0	46.0	22.75	613.1825	301.0	2.15572283764	0.253333333333	0.244205833442	992.555924529	0.671882738894	4.26923076923	0.00544485316971	0.0201884093523	1	4.73913043478	2.05789753192	26	26.6601086957
131	金掌勺东北菜（旧宫店）	1655976	5644883.0	大兴区旧宫镇小红门路临25号（宣頤家园东门）	39.812244	116.4553			旧宫	大兴区,旧宫	东北菜	东北菜	东北菜	45.0	010-52436296	1.0	102.0	5.83333333333	558.111666667	139.333333333	1.82564106008	0.0	0.193259020235	472.787636887	0.903850538531	5.41666666667	0.00430893469689	0.00961641567424	1	4.22235294118	2.02280852941	12	12.4024814815
132	馋嘴皇帝肉蟹煲	109400493	69182807.0	通州区通州万达金街B区二楼B-295	39.904644	116.6401			通州北苑	通州区,通州北苑	海鲜	海鲜	海鲜	78.0	010-52436616	0.0	297.0	52.0	6892.3525	452.75	2.17636790924	0.00970873786408	0.811816887545	915.635810748	0.910621624181	4.46376811594	0.0181004019891	0.0186238680443	1	4.98316498316	3.61085532158	138	88.3634935897
133	张老坎火锅（潘家园店）	1648231	5477214.0	朝阳区潘家园东路华威西里49号（近潘家园大厦）	39.873608	116.45119			劲松/潘家园	朝阳区,劲松/潘家园	火锅	火锅	火锅	53.0	010-52463487	1.0	1468.0	82.0	7813.705	37070.0	2.40958287273	0.222952779438	1.30914372877	371.139328526	0.612252383137	3.29109730849	0.0291888825125	0.00754890732689	1	5.0	4.18550095127	2415	147.428396226
134	烤肉刘（总店）	309337	3234118.0	西城区虎坊桥工人俱乐部对面腊竹胡同80号	39.88793	116.38544			虎坊桥	西城区,虎坊桥	烧烤烤肉	烧烤	烧烤	86.0	010-52464623	1.0	74.4	1.2	311.576	82.2	2.10983611021	0.111111111111	0.0915083261792	646.032447619	0.590401821467	3.3	0.00204028459447	0.013140184029	1	4.46666666667	2.00698121375	20	3.62297674419
135	巫山烤鱼家常菜	115076613	72449798.0	大兴区兴华大街百联清城对面（余生记旁）	39.739986	116.33286			大兴区	大兴区	川湘菜	烤鱼	烤鱼	51.0	010-52465392	1.0	30.0	2.2	279.3	149.6	1.76752944062	0.0612244897959	0.128975544516	236.081762509	0.706855226157	3.16129032258	0.00287565981727	0.00480186067541	1	4.10666666667	2.42736868324	31	5.47647058824
136	辣道渔家巫山烤全鱼	5404112	9011759.0	朝阳区朝阳北路路北黄渠村242号(定福家园1号院对面 黄渠地铁站A口西行200米)	39.92453	116.57224			管庄	朝阳区,管庄	川湘菜	香锅	香锅,烤鱼	53.0	010-52479185	1.0	621.0	5.0	456.625	189.0	1.92735839329	0.0804597701149	0.195164712408	104.545054012	0.675916717335	3.13461538462	0.004351424321	0.00212642763394	1	4.7	2.59017597443	52	8.61556603774
137	味美爵回转自助火锅（双桥店）	1525420	5580818.0	朝阳区双桥地铁站国泰百货B2层	39.908318	116.57716			双桥	朝阳区,管庄,双桥	火锅	自助餐	自助餐,火锅	41.0	010-52492025	1.0	4296.6	528.166666667	22006.3666667	14072.3333333	2.35873804368	0.203554119548	0.606663622197	127.882232448	0.52389637355	2.73006724304	0.0135262712594	0.00260110165457	1	4.30472932086	3.2530919286	1041	536.740650407
138	一品禾黄焖鸡米饭（西环路店）	6043632	19373789.0	昌平区西环北路3-5号（豪恒大厦对面）	40.227093	116.2264			昌平镇	昌平区,昌平镇	小吃快餐	快餐简餐	快餐简餐	21.0	010-52560565	1.0	2052.0	16.25	264.6675	1427.0	2.25078035448	0.210256410256	0.58874045439	170.135290689	0.704102807493	3.53293413174	0.013126653381	0.00346052127526	1	3.6	3.46121298714	167	12.6032142857
139	一品渝香干锅鸭头（昌平西环店）	74044940	44223687.0	昌平区西环路憨邻福超市底商	40.22563	116.22657			昌平镇	昌平区,昌平镇	川湘菜	川菜/家常菜	川菜/家常菜,火锅	44.0	010-52560880	1.0	459.0	8.75	633.8525	166.75	2.19077022191	0.145161290323	0.227694448176	273.559865494	0.655146209546	3.11428571429	0.00507671262558	0.00556415856324	1	4.73986928105	2.46887740794	35	14.4057386364
140	上岛咖啡（顺义宾馆店）	67315795	38219825.0	顺义区光明北街11号顺义地铁站A口麗枫酒店二楼	40.131397	116.656525			顺义	顺义区,顺义	烧烤烤肉	日式烧烤/铁板烧	日式烧烤/铁板烧,烧烤	178.0	010-52591347	1.0	212.0	13.0	2053.29	408.0	2.00180655509	0.118421052632	0.365537468271	350.011287849	0.83550013857	3.90322580645	0.00815008312746	0.00711916677178	1	4.9	2.64649864671	31	11.5353370787
141	京樱日本料理（中粮祥云店）	78783133	56941180.0	顺义区中粮小镇祥云国际生活区6号楼101室	40.08711	116.53757			顺义区	顺义区	日韩料理	日本料理	日本料理	183.0	010-52592066	1.0	203.285714286	2.375	416.29	67.75	1.37816223826	0.0588235294118	0.106546597689	189.529051568	0.5505335895	2.26666666667	0.00237558035356	0.00385498689057	1	4.8692902319	1.29729583063	15	2.27480874317
142	虾士（中粮祥云小镇店）	74486771	43556941.0	顺义区安祥大街中粮祥云南区红煲旁（星巴克咖啡斜对面）	40.08835	116.53684			后沙峪	顺义区,后沙峪	海鲜	火锅	火锅	100.0	010-52592072	1.0	300.0	178.0	27512.0	1979.0	2.36282427292	0.015514809591	0.912673787934	216.883644882	0.756329779939	3.51646090535	0.0203491239218	0.00441137440874	1	4.4	3.80275537345	486	275.12
143	燕语生活燕窝炖品（中粮祥云店）	91177633	65858623.0	顺义区安泰大街6号院祥云小镇南区餐饮街12号楼101	40.086823	116.53844			国展	顺义区,国展,后沙峪	甜点饮品	甜品饮品	甜品饮品	181.0	010-52592082	1.0	17.4	2.33333333333	57.95	39.1666666667	1.91765945872	0.0967741935484	0.0955273079093	155.709739161	0.879307251697	3.84615384615	0.0021298924679	0.00316710814639	1	4.39770114943	2.13839724635	13	0.320165745856
144	赛百味（中粮祥云店）（安泰大街店）	93547588	63195431.0	顺义区安泰大街6号院5号楼103	40.087337	116.53682			后沙峪	顺义区,后沙峪	小吃快餐	快餐简餐	快餐简餐	26.0	010-52592087	1.0	131.333333333	34.0	967.02	664.5	2.19287185045	0.239837398374	0.768066688847	176.856892434	0.850235296216	5.23170731707	0.0171249404094	0.0035972374483	1	4.7152284264	3.20316246787	82	37.1930769231
145	米字旁·韩国街头料理（国瑞城店）	2514853	92451749.0	东城区崇文门外大街国瑞购物中心B1（近巴贝拉）	39.89824	116.41995			崇文门	东城区,崇文门	小吃快餐	火锅	火锅	38.0	010-52593516	1.0	342.666666667	136.5	15887.565	4965.75	1.93501367568	0.159420289855	0.229731027741	928.738143795	0.821248220904	5.8	0.00512212053638	0.0188903671468	1	4.79377431907	2.3383717048	15	418.093815789
146	汉堡王（北京绿地缤纷城餐厅）	51743590	21587625.0	房山区长阳镇广阳大街绿地缤纷城购物中心一层08-09	39.75703	116.16102			良乡	房山区,良乡	小吃快餐	小吃快餐	小吃快餐	37.0	010-52594156	1.0	1005.0	531.0	20364.0	7722.5	2.37079782778	0.224924012158	0.402429324566	279.263137821	0.235565582377	1.89935587762	0.00897262998417	0.00568016209869	1	4.6	1.76342075893	1242	550.378378378
147	巴贝拉（绿地店）	42724567	21792497.0	房山区广阳大街绿地缤纷城3楼	39.75688	116.16037			良乡	房山区,良乡	西餐	意大利菜	意大利菜	56.0	010-52594200	1.0	764.0	3.66666666667	296.94	130.666666667	1.7380038117	0.125	0.0579427091356	192.789923604	0.574879703038	2.42105263158	0.00129190011169	0.00392131244248	1	5.0	1.83068552879	19	5.3025
148	U鼎冒菜（房山绿地店）	41278934	21587777.0	房山区黄辛庄路口昊天大街(绿地缤纷城拱辰街道天星街1号院7号楼3F-ZD-01室)	39.75674	116.16082			良乡	房山区,良乡	小吃快餐	小吃快餐	小吃快餐	35.0	010-52594222	1.0	1143.0	2.0	109.25	16168.5	2.33502331225	0.176271186441	0.398351788612	360.442040339	0.541531497701	3.07720588235	0.0088817165762	0.00733132640522	1	3.6	3.23333994129	272	3.12142857143
149	汤城小厨（力宝店）	4805472	19152834.0	大兴区庄开发区荣华中路力宝广场华联购物中心四层19号(地铁亦庄线万源街A口)（地铁亦庄线万源街A口出）	39.806274	116.5019			亦庄	大兴区,亦庄	粤港菜	粤菜馆	粤菜馆	86.0	010-52595209	1.0	4470.0	202.0	24225.0	4625.0	2.34076529515	0.0144927536232	0.539751239308	268.853652157	0.779338216396	3.91489361702	0.0120343818359	0.00546843502868	1	4.5	3.33498691385	141	281.686046512
150	巴渝小镇（亦庄店）	5897479	17706660.0	大兴区荣华中路力宝华联购物中心4F-19A（万源街地铁站）	39.80552	116.5019			亦庄	大兴区,亦庄	川湘菜	川菜/家常菜	川菜/家常菜	74.0	010-52595229	1.0	336.333333333	274.25	25932.0475	6350.5	2.39467916723	0.106339468303	0.884240246385	426.836088656	0.725382008922	3.44309927361	0.0197151650329	0.00868176943101	1	4.86372646184	3.99451201355	413	350.433074324
151	哈根达斯（亦庄华联店）	4968281	18582674.0	大兴区荣华中街北京华联力宝购物中心一层F1-16单位（荣华中路北环东路口东南角）	39.80471	116.50132			亦庄	大兴区,亦庄	甜点饮品	冰淇淋	冰淇淋,咖啡厅	65.0	010-52595236	1.0	16.0	709.166666667	83555.04	31856.8333333	2.33156114918	0.195945945946	0.0880123039024	303.934022735	0.0574997565101	1.2384305835	0.00196233671048	0.0061819634697	1	4.0	0.496211758847	994	1285.46215385
152	cocolol我爱南洋菜（力宝广场店）	5790426	17149873.0	大兴区荣华中路力宝广场华联购物中心4楼	39.806026	116.50194			亦庄	大兴区,亦庄	东南亚菜	其他东南亚菜	东南亚菜	83.0	010-52595462	1.0	659.666666667	0.666666666667	156.42	109.666666667	2.0837140445	0.0392156862745	0.235732626347	325.503131006	0.922192584038	4.0	0.00525593315966	0.00662067526053	1	4.74077817079	1.96617551715	18	1.88457831325
153	夹拣成厨（华联力宝购物中心店）	42921131	45365485.0	大兴区荣华中路8号院华联力宝购物中心B1层	39.80538	116.50191			亦庄	大兴区,亦庄	小吃快餐	麻辣烫	麻辣烫	44.0	010-52595463	1.0	52.0	26.0	1018.375	2147.0	2.35819746671	0.175202156334	0.753851526693	1008.96551238	0.774213799147	4.41721854305	0.016807996831	0.0205221774239	1	4.1	3.64205758365	151	23.1448863636
154	嗮（sài）纳印象铁板烧（亦庄华联店）	5294504	19143847.0	大兴区亦庄开发区荣华中路力宝广场华联购物中心2层	39.806274	116.5019			亦庄	大兴区,亦庄	烧烤烤肉	日式烧烤/铁板烧	日式烧烤/铁板烧,烧烤	223.0	010-52595496	1.0	688.0	90.0	16661.885	940.75	2.27278357755	0.114285714286	0.289663104843	268.853652158	0.475474553078	2.39726027397	0.00645837592135	0.0054684350287	1	4.54186046512	2.60007125856	146	74.7169730942
155	将太无二（华联力宝餐厅）	6600263	18501602.0	大兴区亦庄经济开发区荣华中路8号院1号楼华联力宝购物中心4楼	39.804874	116.501205			亦庄	大兴区,亦庄	日韩料理	日本料理	日本料理	136.0	010-52595591	1.0	2082.0	48.75	5080.1	103357.5	2.4995747913	0.0869797225187	0.977287855636	312.290018753	0.49869569064	2.58687753794	0.0217897697343	0.00635192292889	1	4.85043227666	3.47285351267	4679	37.3536764706
156	韦小包	74953406	33598349.0	通州区新华西街万达金街A区A3-126号（通州北苑地铁东边100米，西关大街西半段）	39.904976	116.63896			新华大街	通州区,新华大街	小吃快餐	江浙菜	本帮江浙菜	17.0	010-52597224	1.0	766.666666667	58.75	896.1225	1224.5	2.38712007809	0.307042253521	2.02766792186	849.39073863	0.753999903852	6.92307692308	0.0452092153405	0.0172764551677	1	4.80156521739	3.90489307269	169	52.7130882353
157	弹丸滋地&泰焦鸡（万达金街店）	63763849	37939468.0	通州区西门万达金街B2-105号（7号门斜对面一层）	39.90477	116.641655			通州北苑	通州区,通州北苑	小吃快餐	小吃快餐	小吃快餐	17.0	010-52597264	1.0	510.8	45.5	798.875	1415.33333333	2.27489971619	0.263157894737	1.92373361444	1333.75362539	0.921375685548	6.72463768116	0.0428918790376	0.0271283093466	1	4.79240407204	4.2285387741	207	46.9926470588
158	老秦人(龙湖大兴天街店)	82247849	66797596.0	大兴区永兴路七号院龙湖大兴天街购物中心B1层	39.686695	116.32137			黄村	大兴区,黄村	西北菜	西北菜	西北菜	29.0	010-52598902	1.0	185.0	13.5	222.37	760.5	2.26939082384	0.0151515151515	0.770983289738	393.6850506	0.829156768497	4.42156862745	0.0171899694195	0.00800748326717	1	5.0	3.48617218714	102	7.66793103448
159	拿渡麻辣香锅（龙湖大兴天街店）	92169288	66798760.0	大兴区永兴路七号院龙湖大兴天街购物中心3层	39.687492	116.3205			大兴区	大兴区	川湘菜	香锅	香锅	67.0	010-52598913	1.0	69.0	1.0	102.825	416.0	1.57326729144	0.0444444444444	0.18814635025	2506.25240845	0.670105106588	2.71428571429	0.00419494177141	0.0509767241439	1	5.0	2.46011671933	35	1.53470149254
160	坦坦大炉（大兴天街店）	91629169	66798535.0	大兴区新源大道龙湖天街购物中心3F-13	39.686043	116.32121			大兴区	大兴区	日韩料理	韩国料理	韩国料理	108.0	010-52598917	1.0	562.0	494.25	84967.5625	4594.25	2.37070847602	0.118143459916	0.811914714343	347.421174862	0.586070607085	2.94357366771	0.0181025831513	0.00706648433852	1	5.0	3.73517134179	638	786.736689815
161	靓健回转自助火锅（明珠店）	6798493	17734287.0	西城区西单明珠大厦8层	39.910393	116.37609			西单	西城区,西单	火锅	自助餐	自助餐,火锅	46.0	010-52602697	1.0	1245.5	657.333333333	30231.79	19795.3333333	2.33831872198	0.243269230769	0.692727263291	1106.6759905	0.429594081235	2.49082007344	0.0154451602655	0.0225095910109	1	5.0	3.17141421461	1634	657.212826087
162	康仔港式云吞粉面（官园店）	286552	2490793.0	西城区车公庄大街丙4号1层（官园批发市场一层）	39.931995	116.352425			阜成门	西城区,阜成门	小吃快餐	快餐简餐	快餐简餐	35.0	010-52604228	1.0	11375.4	261.2	10619.872	17383.2	2.26236904196	0.262118491921	1.0288551629	535.32883655	0.684457263398	4.84297520661	0.022939522844	0.0108884924499	1	4.6415370009	4.34920188787	242	303.424914286
163	时间轴餐厅（朝阳分店）	2409380	6590932.0	朝阳区林翠东路2号院甲3号楼（国奥村花园酒店对面）	40.00924	116.38156			亚运村	朝阳区,亚运村	自助餐	自助餐	自助餐	305.0	010-52666009	1.0	274.666666667	105.75	29036.955	1809.25	2.28617704586	0.109756097561	0.274309561911	328.552365632	0.467195679846	2.72072072072	0.00611605081911	0.00668269614552	1	4.87621359223	2.27414821556	111	95.2031311475
164	金滏山（马连道店）	42361772	22212458.0	丰台区马连道路21号京闽茶楼6楼	39.880196	116.326294			广外大街	西城区,广外大街	自助餐	自助餐	自助餐,海鲜,烧烤	56.0	010-52690578	1.0	11097.2	1748.0	97048.5833333	75246.1666667	2.38202040075	0.0665422885572	0.957227796401	409.127122192	0.471306824109	2.49135802469	0.0213425073755	0.00832157223168	1	4.61590671521	3.19860911615	4455	1733.01041667
165	行宫国际酒店（御茶坊海鲜自助）	2410076	8676235.0	朝阳区石佛营东里155号（炫特区北门对面）	39.93241	116.508415			十里堡	朝阳区,十里堡,青年路	自助餐	自助餐	自助餐,海鲜	235.0	010-52699666	1.0	211.0	205.5	48909.0	2256.0	2.19519044125	0.14798206278	0.3234381695	230.011902115	0.527605247787	2.79891304348	0.00721143028235	0.00467840080448	1	5.0	2.96243436078	184	208.123404255
166	米乐家	5002607	20926517.0	海淀区双清路6号（7天连锁酒店和德邦速递旁边）	40.01572	116.34643			五道口	海淀区,五道口	小吃快餐	快餐简餐	快餐简餐,西式简餐	39.0	010-52707098	1.0	197.0	2.5	54.675	111.0	2.21650013727	0.204081632653	0.0796655587119	256.656851804	0.571678592408	3.40740740741	0.00177623631572	0.00522035429869	1	4.4	2.31891656968	27	1.40192307692
167	唐唐小馆（魏公村店）	1513953	5365680.0	海淀区中关村南大街甲18号北京国际B1楼	39.953476	116.32441			中关村	海淀区,中关村	京菜鲁菜	北京菜	北京菜	74.0	010-52711599	1.0	1190.4	27.0	3872.498	978.8	2.43633443206	0.0701298701299	0.695382748688	496.98251793	0.693512172239	3.6814159292	0.0155043674018	0.0101085352119	1	4.88548387097	3.22951353749	226	52.3310540541
168	黄河京都生态园（中滩村店）	276980	2043880.0	昌平区天通苑东小口镇太平庄中街黄河京都会议中心(东小口地税所斜对面)	40.06877	116.401344			天通苑	昌平区,天通苑	京菜鲁菜	北京菜	北京菜	78.0	010-52713391	1.0	1146.6	41.0	3972.07	1620.5	2.33785637528	0.117647058824	0.31719967086	159.57753469	0.560071703445	3.0	0.00707233569718	0.00324577841323	1	3.54224664225	2.59928294118	115	50.923974359
169	汉丽轩自助烤涮城（白各庄店）	41426857	21719767.0	昌平区沙河镇白各庄村东100米白各庄商业中心二层	40.11611	116.35788			北七家	昌平区,北七家	烧烤烤肉	烧烤	烧烤	60.0	010-52719128	1.0	4556.0	524.5	24534.9533333	15850.1666667	2.33273557295	0.081466395112	0.501103752074	94.8756847441	0.399963203923	2.16627358491	0.0111726911449	0.00192975439858	1	4.45162423178	2.67435340763	848	408.915888888
170	彤顺德海鲜火锅（良乡店）	91613965	91986463.0	房山区良乡拱辰大街5号	39.74094	116.14181			房山区	房山区	海鲜	自助餐	自助餐		010-52740144	1.0	384.0	3.0	638.5	66.0	1.98686122496	0.0142857142857	0.258491018375	235.310646456	0.525626098794	3.1	0.00576335798741	0.0047861763133	1	4.3	2.09050517431	40	
171	星哥饺子馆（四惠东店）	90353819	65949367.0	朝阳区7天酒店旁（四惠东地铁站店）	39.909843	116.51675			高碑店	朝阳区,高碑店	小吃快餐	饺子	饺子	14.0	010-52740292	1.0	66.0	13.0	156.0	609.0	2.11790927672	0.169491525424	0.141119299612	237.433533231	0.455273170982	2.88636363636	0.00314641896539	0.00482935544929	1	4.6	1.82744408052	44	11.1428571429
172	贡贡米线（华业店）	98661878	66870457.0	通州区梨园南街华业东方玫瑰临河里29号楼一层126	39.880283	116.683945			梨园	通州区,梨园	小吃快餐	小吃快餐	小吃快餐,粉面馆	22.0	010-52740802	1.0	50.0	15.0	297.0	184.0	1.87266961889	0.192307692308	0.0927876080445	213.777717096	0.558749617617	3.0	0.002068807672	0.00434820039505	1	4.3	2.06425807517	14	13.5
173	蔓果（亦庄城乡世纪广场店）	52453830	24291766.0	大兴区亦庄城乡世纪广场3层北侧连廊电玩城旁(电影院、电玩城)	39.80185	116.53307			亦庄	大兴区,亦庄	甜点饮品	甜品饮品	甜品饮品	29.0	010-52742698	1.0	19.2	3.66666666667	70.8133333333	100.5	1.54215140295	0.192307692308	0.0978323571749	457.957210852	0.819540688572	3.81818181818	0.002181286223	0.00931476747057	1	3.9375	2.2718685127	11	2.44183908046
174	老龙口排骨大包	83558354	56795885.0	通州区西门金街B区2-149号（旋转木马西侧20米）	39.90469	116.64059			通州北苑	通州区,通州北苑	小吃快餐	包子	包子	16.0	010-52747065	1.0	190.0	8.75	122.6475	327.75	2.31312499284	0.359550561798	1.1120384415	1636.63728015	0.865656655813	6.88888888889	0.0247941908173	0.0332889085203	1	4.74105263158	3.6813208134	63	7.66546875
175	爱尚厨艺	98907700	63177706.0	昌平区天通苑南街道中滩村北一街正辰小区对面（中煤建设集团对面）	40.061012	116.41101			天通苑	昌平区,天通苑	川湘菜	湘菜	湘菜	54.0	010-52777099	1.0	140.0	3.625	210.63	101.125	2.20497536451	0.147540983607	0.304803450126	270.216170606	0.618135653771	3.53968253968	0.00679594753396	0.00549614840937	1	4.47326530612	2.5015122532	63	3.90055555556
176	老诚一锅（光熙门店）	1494856	5496711.0	朝阳区北三环东路12号9号楼（汉庭酒店西侧）	39.968807	116.43033			太阳宫	朝阳区,太阳宫	火锅	羊蝎子	羊蝎子	80.0	010-52838405	1.0	4296.0	178.5	24132.0	1218.5	2.39230639294	0.243243243243	0.597935128108	437.201542424	0.689025187833	3.6976744186	0.0133316593288	0.00889260090016	1	4.0	3.75713067175	215	301.65
177	金埦勺东北菜	2859867	9856535.0	朝阳区安慧里3区4号楼	39.991913	116.41041			亚运村	朝阳区,亚运村	东北菜	东北菜	东北菜	41.0	010-52851897	1.0	142.0	3.25	1069.1875	159.0	2.14632900622	0.0	0.346588292618	373.855326482	0.76660623195	3.81132075472	0.00772758921051	0.00760415023782	1	4.5	2.34582390695	53	26.0777439024
178	猜丁壳私家牛板筋火锅店（南口店）	68133746	27530745.0	昌平区南口交通街火车站向西200米路南	40.238842	116.12706			南口镇	昌平区,南口镇	火锅	火锅	火锅	69.0	010-52862266	1.0	157.333333333	14.0	2273.7025	245.75	2.16134446642	0.245283018868	0.383795404212	21.5977717356	0.60327367201	3.375	0.00855716505087	0.000439294800547	1	4.94406779661	2.52082993818	56	32.9522101449
179	兰亭花式铁板烧	42632876	21785097.0	丰台区东大街20号（近解放军第307医院）京味斋内	39.858097	116.294174			六里桥/丽泽桥	丰台区,六里桥/丽泽桥	烧烤烤肉	日式烧烤/铁板烧	日式烧烤/铁板烧,烧烤	145.0	010-52863536	1.0	8428.0	212.333333333	27844.415	5481.83333333	2.37694701852	0.110091743119	0.770997155175	295.812451174	0.681511326792	3.49553571429	0.0171902785655	0.00601677216188	1	4.83166112957	3.68403584075	448	192.030448276
180	阿田大虾火锅（大成路店）	2670214	15104974.0	丰台区大成路青塔五街海友客栈1楼（翠微百货往西500米）	39.88907	116.256905			青塔	丰台区,青塔	火锅	火锅	火锅	75.0	010-52866808	1.0	887.666666667	53.5	4690.75	5089.75	2.34494511599	0.232300884956	0.563753016296	502.311551562	0.536830833004	2.7409733124	0.012569529378	0.0102169267995	1	4.64682688697	3.46389018239	637	62.5433333333
181	百年义利（兴政家园店）	51080626	28626458.0	大兴区新华大街兴政家园东门底商	39.728626	116.33252			黄村	大兴区,黄村	甜点饮品	面包甜点	面包甜点	108.0	010-52870969	1.0	0.0	11.0	1848.0	260.0	2.34677127409	0.119047619048	0.13894293079	153.802731444	0.490562019177	3.17073170732	0.00309789429047	0.00312831995172	1	3.5	1.63664458259	41	17.1111111111
182	百年义利（远洋山水店）	4215126	18111977.0	石景山区远洋山水小区西侧，鲁谷东街永乐东小区64楼底商（喜相逢宾馆南50米左右）	39.90145	116.23547			鲁谷	石景山区,鲁谷	甜点饮品	面包甜点	面包甜点	72.0	010-52870969	1.0	0.0	11.0	1848.0	261.0	1.58740447586	0.2	0.155230234902	278.548827307	0.449920114648	3.08333333333	0.00346103868457	0.00566563315105	1	3.7	1.34979239617	12	25.6666666667
183	陈记惠民饺子城	6144475	18173911.0	大兴区黄村龙河路77号	39.73654	116.343475			黄村	大兴区,黄村	小吃快餐	饺子	饺子	39.0	010-52873990	1.0	558.0	1.0	80.175	273.0	2.18676465318	0.175	0.165029837616	164.606904255	0.614909824339	2.75471698113	0.0036795322281	0.00334807488746	1	4.0	2.88403023267	53	2.05576923077
184	有禧和食新派料理	88126787	45821150.0	石景山区雕塑园南街远洋山水南区东门对面（玉鲁商厦西区底商2楼）	39.89788	116.24377			鲁谷	石景山区,鲁谷	日韩料理	日本料理	日本料理	133.0	010-52878277	1.0	115.2	1.33333333333	244.208333333	52.8333333333	2.03521272208	0.0416666666667	0.170952931833	429.13535412	0.72969579463	3.26086956522	0.0038115945047	0.00872853607785	1	4.65	1.92840106976	23	1.8361528822
185	南京夫子庙美食	61313389	24928494.0	石景山区苹果园南路13号（喜隆多五层）	39.92284	116.17173			苹果园	石景山区,苹果园	小吃快餐	小吃快餐	小吃快餐	59.0	010-52878310	1.0	179.6	22.8333333333	2186.96666667	1021.66666667	2.47790010575	0.169014084507	0.758625409002	264.93461156	0.93338508777	4.39597315436	0.0169144360911	0.00538872244635	1	3.35968819599	3.74399146399	149	37.0672316385
186	兰亭（月坛店）	116345458	69774464.0	西城区月坛南街30号万方西单商场2楼	39.913532	116.34101			月坛	西城区,月坛	烧烤烤肉	日式烧烤/铁板烧	日式烧烤/铁板烧,烧烤	190.0	010-52882214	1.0	396.0	28.6666666667	5828.67666667	456.666666667	2.08241382969	0.0975609756098	0.219425021029	508.858987071	0.533236614912	2.66666666667	0.00489233612656	0.0103501004626	1	5.0	2.25511643528	60	30.6772456141
187	品味比萨（果园店）	93355066	19700463.0	通州区新华联家园北区10号楼1007底商	39.88847	116.64182			果园	通州区,果园	西餐	比萨	比萨	53.0	010-52885736	1.0	0.0	2.5	211.605	154.0	2.12245527115	0.09375	0.230326278729	226.486976867	0.760319431445	4.36363636364	0.00513539234967	0.00460670445761	1	3.5	2.04441286563	22	3.99254716981
188	一山一城一味重庆小面（双井店）	6468927	19185490.0	朝阳区广渠路双井桥东百环家园66号院19号楼底商	39.891815	116.4658			双井	朝阳区,双井	小吃快餐	小吃快餐	小吃快餐,粉面馆	22.0	010-52885757	1.0		10.0	131.6	112.0	2.09527420357	0.267857142857	0.28469574783	433.816693941	0.609837082319	3.75925925926	0.00634762291763	0.00882375368955	1	4.6	2.92730562128	54	5.98181818182
189	辣麻麻老灶火锅	83928448	50773273.0	海淀区万泉河路68号2楼	39.967278	116.30789			人民大学	海淀区,苏州桥,人民大学	火锅	重庆火锅	重庆火锅,火锅	102.0	010-52886071	1.0	1227.0	26.0	3144.0	438.0	2.3405099907	0.292857142857	0.320137318531	494.344325066	0.610849338272	3.89393939394	0.00713783396974	0.0100548748426	1	4.6	3.27107183549	66	30.8235294118
190	聚缘家常菜	5763373	17779639.0	西城区半步桥街14-9号	39.874935	116.36784			右安门	西城区,丰台区,右安门	其他美食	家常菜	家常菜	41.0	010-52886812	1.0	145.5	3.4	164.416	136.6	1.78873207213	0.03125	0.121426671654	453.836606166	0.550281979475	2.54545454545	0.00270734891434	0.00923095511087	1	4.95670103093	1.82908143691	22	4.01014634146
191	乌苏里江野生大鱼村	87053227	59219157.0	大兴区西红门镇欣宁街1号	39.782253	116.33039			西红门	大兴区,西红门	东北菜	东北菜	东北菜	102.0	010-52889167	1.0	55.0	1.33333333333	291.266666667	46.0	1.88433637899	0.0227272727273	0.18710246459	185.892394454	1.031632551	5.09090909091	0.00417166712614	0.00378101793762	1	4.5	2.09827373953	11	2.85555555556
192	老诚一锅（看丹桥店）	300055	16831756.0	丰台区韩庄子195号（京铁丰台招待所大门南侧）	39.84079	116.29307			看丹桥	丰台区,看丹桥	火锅	羊蝎子	羊蝎子	61.0	010-52889328	1.0	2710.8	119.166666667	13143.4333333	5247.0	2.40457489305	0.215133531157	0.762588303143	228.058423338	0.575914723383	2.89132947977	0.0170027934265	0.00463866739679	1	4.8378043382	3.57086560454	865	215.466120218
193	虾吃虾涮（世纪金源店）	92882251	57887573.0	海淀区远大路1号金源购物中心5楼西侧	39.95904	116.28796			远大路	海淀区,远大路	火锅	火锅	火锅	76.0	010-52889692	1.0	2287.0	171.0	25506.065	1562.75	2.34753697702	0.229779411765	0.746304623364	465.963670315	0.670116239387	3.79527559055	0.0166397298411	0.00947761741898	1	4.52496720595	3.70264734493	381	335.606118421
194	金滏山自助烤肉涮肉（望京店）	2401826	8075292.0	朝阳区广顺北大街19号六佰本南区3层（望京花园西区正对面）	40.007915	116.46702			望京	朝阳区,望京	自助餐	自助餐	自助餐,烧烤	69.0	010-52891777	1.0	13816.4	1527.0	103307.205	94726.0	2.40273491386	0.0618915159944	0.797397622577	212.68712175	0.464162787639	2.349385652	0.017778907701	0.00432601788145	1	3.98661301063	3.01703201983	5046	1497.20586957
195	麦香屋面包房（鲁谷大街店）	3279481	23005900.0	石景山区鲁谷大街15号	40.002617	116.41669			大屯	朝阳区,大屯	甜点饮品	面包甜点	面包甜点		010-52902993	1.0	30.8571428571	3.375	323.11	52.375	1.4820987735	0.372093023256	0.198789717188	320.641557981	0.597457167812	4.30769230769	0.00443224801997	0.00652179173779	1	3.8	1.94593477576	13	
196	帕蒂沃克生日蛋糕店（雍和宫店）	4418226	23078595.0	东城区雍和宫地铁附近	39.96853	116.335365			清河	海淀区,清河	甜点饮品	面包甜点	面包甜点	150.0	010-52902993	1.0	0.0	23.5	3282.17	497.0	1.93827404356	0.243243243243	0.184394870063	453.837277364	0.358035182292	2.12173913043	0.0041112981561	0.00923096876291	1	4.0	1.92259088936	115	21.8811333333
197	灿辉铁锅柴鸡（沙河店）	2578664	9990541.0	昌平区亿旺商城斜对面（原新庄园大酒店）	40.146534	116.29284			沙河	昌平区,沙河	火锅	火锅	火锅	51.0	010-52907532	1.0		7.0	527.0	72.0	1.94258051136	0.224489795918	0.253151910647	136.267862944	0.932088419514	4.4375	0.00564431636902	0.00277166387374	1	3.8	2.68594532467	16	10.3333333333
198	黄记煌三汁焖锅（圆明园百旺店）	3320247	13807393.0	海淀区圆明园西路百旺商城5楼(近农大西区)	40.02865	116.27649			上地	海淀区,上地,农业大学西区	火锅	火锅	火锅	73.0	010-52908688	1.0	6925.5	1349.0	199820.828	48020.2	2.41838812019	0.222720994475	1.62174878017	233.262156068	0.615135844481	3.22836095764	0.0361587758233	0.0047445103865	1	4.8	4.40188959895	6516	2737.27161644
199	川乐小镇麻辣香锅（良乡店）	1662560	4740688.0	房山区拱辰街道办事处二街金花商业大厦家乐福1楼	39.732357	116.14253			良乡	房山区,良乡	川湘菜	香锅	香锅	58.0	010-52910083	1.0	97.6666666667	277.25	10816.3275	3029.25	2.10386001473	0.0913242009132	0.594952849831	217.51138996	0.721331453899	3.42051282051	0.013265165965	0.00442414263094	1	4.50102389078	3.32999451826	195	186.488405172
200	丁丁洋回转自助火锅	2367089	6439812.0	海淀区北三环西路甲18号中坤广场地下二层家乐福出口处（上行扶梯口）	39.966934	116.342445			大钟寺	海淀区,大钟寺	火锅	自助餐	自助餐,火锅	49.0	010-52963270	1.0	8657.0	2506.25	99998.005	70852.75	2.34300194137	0.210559006211	0.937588661438	472.547464883	0.437561793548	2.48465524113	0.020904630013	0.00961153061879	1	4.17319317701	3.25566905402	5018	2040.77561224
201	虾吃虾涮虾火锅（田村店）	72477998	56898950.0	海淀区田村路23号长荣酒店西侧	39.92951	116.26618			五棵松	海淀区,五棵松	火锅	火锅	火锅	83.0	010-52985780	1.0	2180.0	276.0	38509.5	2794.0	2.34111840607	0.257641921397	0.566562726678	282.246226949	0.487244899761	2.69014084507	0.0126321751398	0.00574083759613	1	4.6	3.31139983749	568	463.969879518
202	永和大王（石景山店）	299355	2933449.0	石景山区石景山路乙18号院4号楼家乐福B1楼B104室商铺	39.90675	116.22648			鲁谷	石景山区,鲁谷,石景山其它	小吃快餐	快餐简餐	快餐简餐	19.0	010-52990122	1.0	0.0	458.0	6426.56333333	15361.3333333	2.37661775233	0.238507661559	1.70546407623	442.573723728	0.589260566313	4.52321007081	0.0380253057448	0.00900187010364	1	3.91666666667	4.09205298282	1271	338.240175438
203	猫师傅（石景山喜隆多店）	6085021	20666773.0	石景山区阜石路300号喜隆多新国际购物中心422号	39.92284	116.17173			苹果园	石景山区,苹果园	川湘菜	烤鱼	烤鱼	80.0	010-53020752	1.0	5902.0	589.5	68121.0	8288.0	2.43487988725	0.110998990918	1.24156546	264.93461156	0.714219083388	3.42047026279	0.0276821463885	0.00538872244635	1	4.1	4.05734824701	1446	851.5125
204	印巷小馆（石景山喜隆多店）	5285865	19265074.0	石景山区阜石路300号喜隆多新国际购物中心403号	39.92301	116.172676			苹果园	石景山区,苹果园,模式口	京菜鲁菜	北京菜	北京菜	80.0	010-53020805	1.0	6970.0	935.5	100023.5	41332.0	2.2778785758	0.0663716814159	0.709873782108	285.573483134	0.881064778259	4.65789473684	0.015827461851	0.00580851338972	1	4.2	3.25365189314	76	1250.29375
205	爱茜茜里意大利健康冰淇淋（北京喜隆多店）	50778412	27550008.0	石景山区阜石路喜隆多新国际购物中心3层308号	39.9232	116.17117			苹果园	石景山区,苹果园	甜点饮品	冰淇淋	冰淇淋	35.0	010-53020834	1.0	2.57142857143	4209.75	435588.35125	119161.75	2.42043777444	0.137931034483	0.0909443602891	337.385673728	0.0418805001247	1.10910938655	0.00202771031883	0.00686236404671	1	4.5	0.404024946221	32472	12445.3814643
206	榕意小馆（喜隆多店）	41379120	24055975.0	石景山区苹果园南路13号喜隆多五层（喜隆多商场）	39.92284	116.17173			苹果园	石景山区,苹果园	川湘菜	川菜/家常菜	川菜/家常菜	68.0	010-53020868	1.0	3183.0	18.75	1746.7525	1883.5	2.43120614661	0.120781527531	1.20093575232	264.93461156	0.817569918826	4.26853707415	0.0267762597866	0.00538872244635	1	4.85907424861	4.02339544385	499	25.6875367647
207	骨之恋（喜隆多店）	5340508	20645639.0	石景山区苹果园南路13号喜隆多购物广场4楼	39.92284	116.17173			苹果园	石景山区,苹果园	火锅	火锅	火锅	79.0	010-53021000	1.0	3518.66666667	44.25	4331.06	2265.0	2.36567992899	0.208494208494	1.07482859754	264.93461156	0.711843150486	4.03164556962	0.0239645540557	0.00538872244635	1	4.41121636984	3.9822221664	474	54.8235443038
208	麻里麻里麻辣香锅（喜隆多店）	5483011	19578846.0	石景山区苹果园喜隆多商场4层	39.92284	116.17173			苹果园	石景山区,苹果园	川湘菜	香锅	香锅,烤鱼	83.0	010-53021017	1.0	1899.71428571	63.875	6199.87	1180.125	2.09596658857	0.0927835051546	0.477657591603	264.93461156	0.719364152828	3.15384615385	0.0106499317196	0.00538872244635	1	4.56625056399	3.22643132485	143	74.6972289157
209	棒约翰	40362346	20886557.0	石景山区阜石路300号喜隆多新国际购物中心	39.922955	116.17174			苹果园	石景山区,苹果园	西餐	比萨	比萨	86.0	010-53021031	1.0	200.0	344.5	40393.5	9652.5	2.31868357758	0.073482428115	0.512979296765	893.015133197	0.679124347833	3.39204545455	0.01143747023	0.0181637675231	1	4.0	3.31256264325	176	469.691860465
210	好伦哥海洋自助餐厅（丰台科技园店）	116514173	75015863.0	丰台区诺德中心5号楼2层	39.827034	116.3025			丰台区	丰台区	西餐	自助餐	自助餐,西餐	77.0	010-53028877	1.0	357.0	41.0	3036.21666667	2354.0	2.26089854191	0.0419161676647	0.507373444713	352.360089683	0.588332979673	3.0977443609	0.0113124812366	0.00716694097949	1	4.9	3.05849128096	266	39.4313852814
211	丰茂烤串l羊肉现穿才好吃（太平桥路店）	105052614	68217985.0	丰台区太平桥路44-3号丰茂烤串	39.88389	116.31759			六里桥/丽泽桥	丰台区,六里桥/丽泽桥	烧烤烤肉	烧烤	烧烤	99.0	010-53029828	1.0	35.0	10.0	877.116666667	428.666666667	2.02299012885	0.0443037974684	0.31068293493	426.077212982	0.718213688803	3.29885057471	0.00692703748796	0.008666334036	1	5.0	3.02579615722	87	8.85976430977
212	人民公社大食堂（青塔西路店）	51623050	9564424.0	丰台区青塔西路青塔综合市场向南50米(老诚一锅北侧)	39.87736	116.26369			青塔	丰台区,青塔	东北菜	东北菜	东北菜	81.0	010-53033080	1.0	410.0	10.5	1014.91	635.0	2.20661745458	0.0183486238532	0.249340772664	217.660361361	0.667939820919	3.0	0.00555934261375	0.00442717268249	1	5.0	2.5710785138	64	12.5297530864
213	香满道美食广场（丰台科技园店）	5419344	23936933.0	丰台区汽车博物馆东路丰台科技园诺德中心二期5号楼B1层	39.827007	116.30236			花乡	丰台区,花乡	小吃快餐	快餐简餐	快餐简餐	19.0	010-53033989	1.0	6.33333333333	5.75	575.91	60.25	1.76993110687	0.296296296296	0.0514014353135	357.946864688	0.47710456577	2.76470588235	0.0011460548016	0.00728057498032	1	4.0	1.77310589144	17	30.3110526316
214	魏家凉皮（元沃商城店）	6020962	20939390.0	丰台区马家堡西路公益西桥地下一层元沃商城	39.839237	116.37115			公益西桥	丰台区,公益西桥	小吃快餐	小吃快餐	小吃快餐	20.0	010-53040368	1.0	176.0	4.0	85.5	182.0	2.2100476121	0.166666666667	0.136728795933	325.448107401	0.751829427145	5.1875	0.00304852757788	0.00661955609027	1	3.5	2.2696393746	16	4.275
215	中国兰州传统牛肉面（公益西桥店）	93595516	66029810.0	丰台区马家堡西路36号院8-5门地下室105（炭牛烤肉北侧底商）	39.837303	116.37108			公益西桥	丰台区,公益西桥	新疆菜	新疆菜	新疆菜	35.0	010-53040368	1.0	165.0	15.6666666667	236.086666667	354.0	2.07764667209	0.010101010101	0.359627072534	570.970348162	0.933547660844	5.42307692308	0.00801830397826	0.0116134343989	1	4.5	2.61826837135	26	6.74533333334
216	刚子烧烤酒吧	105963912	67846014.0	顺义区通顺路27号顺平西街（菲林时尚酒店门口旁边）	40.09938	116.65712			顺义	顺义区,顺义	烧烤烤肉	烧烤	烧烤	69.0	010-53062666	1.0	130.0	22.5	2622.0	160.0	1.95274464545	0.130081300813	0.624234795778	225.70858632	0.730841870954	5.02631578947	0.013918041017	0.00459087213361	1	5.0	2.62882044984	38	38.0
217	京源呈斑鱼庄	41891278	21343423.0	顺义区双平西街与通顺路交叉口向西400米路北（凯乐门旁）	40.09947	116.65759			石园	顺义区,石园	火锅	火锅	火锅	86.0	010-53062678	1.0	2004.0	10.2	1000.886	562.8	2.14999782741	0.278846153846	0.452262108516	210.064048435	0.672965130154	4.04347826087	0.0100837098786	0.00427266504104	1	5.0	2.9455815483	46	11.6382093023
218	虾吃虾涮（世界公园店）	41935574	21263474.0	丰台区丰葆路106号	39.815525	116.290924			总部基地	丰台区,总部基地	火锅	火锅	火锅	87.0	010-53105711	1.0	2247.33333333	184.75	17845.065	3875.5	2.3121680144	0.245499181669	0.641788189527	224.540671924	0.523818379226	2.62895377129	0.0143094143526	0.00456711696442	1	4.59071492139	3.43197945347	822	205.115689655
219	阿泰包子（沙河店）	69319809	27414764.0	昌平区沙河巩华家园西二村一层底商	40.146034	116.28442			沙河	昌平区,沙河	小吃快餐	其他中餐	中餐	15.0	010-53107926	1.0	556.0	21.0	317.2	557.0	2.22515652445	0.246575342466	0.609827019531	75.8372375944	0.640668813414	3.94915254237	0.0135968028833	0.00154251580074	1	3.6	2.76127326951	59	21.1466666667
220	爱慕餐厅	40536796	23221352.0	顺义区聚源西路18号爱慕时尚工厂	40.175102	116.62655			马坡牛栏山	顺义区,马坡牛栏山	其他美食	其他中餐	中餐	74.0	010-53220028	1.0	210.0	3.6	1187.884	147.0	2.00365347751	0.0645161290323	0.286577145164	63.6850907232	0.901661661028	3.96	0.00638957086004	0.00129534331456	1	4.90057142857	2.67402098313	25	16.0524864865
221	君颐润华酒店（海棠花厅）	41752537	61130817.0	丰台区丰管路君颐润华酒店内一层	39.858345	116.29943			丽泽桥/丰管路	丰台区,丽泽桥/丰管路	其他美食	其他中餐	中餐	97.0	010-53225811	1.0	1673.6	8.16666666667	1033.595	144.166666667	2.30120854554	0.0434782608696	0.216519780244	345.037292038	0.765246983194	4.14705882353	0.00482756040325	0.00701799658976	1	4.85157743786	2.43968985948	34	10.6556185567
222	群生记（望京店）	91766960	65765620.0	朝阳区阜通西大街望京新荟城4层	39.99854	116.48231			望京	朝阳区,望京	小吃快餐	快餐简餐	快餐简餐	43.0	010-53269065	1.0		38.0	1658.6	385.0	2.24749976318	0.21935483871	0.547024360161	307.518606842	0.843347223581	6.2	0.012196544527	0.00625487326705	1	5.0	3.23833378675	40	38.5720930233
223	吃山	95502539	57303399.0	朝阳区阜安路望京东园一区120号新荟城购物中心二楼	39.99854	116.48231			望京	朝阳区,望京	云贵菜	云南菜	云南菜	77.0	010-53269481	1.0	112.0	90.0	8567.0	175.0	2.31445059268	0.0281124497992	0.888079021686	307.518606842	1.01199025293	6.37096774194	0.0198007549944	0.00625487326705	1	5.0	3.0936903761	62	111.25974026
224	厨状元	40167918	21359649.0	昌平区科星西路良庄街6号楼1层106,和谐家园二区西门(近盛百味)	40.0823	116.35833			昌平区	昌平区	东北菜	东北菜	东北菜	34.0	010-53300636	1.0	188.0	0.75	79.9225	118.75	1.90975365887	0.0	0.126155963147	305.258314044	0.490923145507	2.55882352941	0.0028127939703	0.00620889931723	1	4.63085106383	1.64592019543	34	2.35066176471
225	川门食府	6436986	21051249.0	大兴区团河路18号金海学校对面	39.904858	116.45881			国贸	朝阳区,国贸	其他美食	其他中餐	中餐	50.0	010-53300959	1.0	51.3333333333	3.25	263.4375	320.0	2.17767413848	0.0	0.0754788815357	459.979807709	0.608807582128	2.56	0.00168288947722	0.00935590672762	1	4.1	1.82965038454	25	5.26875
226	一山一城一味重庆小面（蒲黄榆店）	50513807	27210392.0	丰台区安乐林路与蒲黄榆（安乐林路1—3号）二巷交叉路口东	39.86561	116.419426			方庄	丰台区,方庄	小吃快餐	小吃快餐	小吃快餐,粉面馆	36.0	010-53305757	1.0	109.0	8.0	365.3875	221.5	2.24511765057	0.30487804878	0.187663664996	445.30679087	0.633940923321	3.64864864865	0.00418417974211	0.00905746019875	1	4.67889908257	2.70971948975	37	10.1496527778
227	京陕味道京味缘	76843676	35369580.0	大兴区黄村镇首座御园23号楼底商	39.744743	116.36716			黄村	大兴区,黄村	西北菜	西北菜	西北菜	31.0	010-53310466	1.0	118.0	11.3333333333	217.53	966.0	1.79926114379	0.0444444444444	0.169747305335	85.5195385405	0.581100829571	3.5	0.00378471365927	0.00173945206412	1	3.7	1.7728746524	20	7.01709677419
228	U.me pizza尤米披萨	42399103	23007391.0	昌平区金隅万科广场往南300米,润杰经典创新园东门（326/1/52/66路公交站）	40.210392	116.24038			昌平镇	昌平区,昌平镇	西餐	比萨	比萨	71.0	010-53310980	1.0	1492.0	46.75	4548.3275	1527.75	2.34919295187	0.0621301775148	0.756400218965	233.721843038	0.788413372498	3.74048442907	0.0168648228904	0.00475386033695	1	5.0	3.76762111509	289	64.0609507042
229	渔状元火锅（金台路店）	41630494	22465510.0	朝阳区水碓子东里22号，金台路地铁A口向西200米（朝阳北路金台路地铁站A口；公交9路总站）	39.923286	116.47512			朝阳公园/团结湖	朝阳区,朝阳公园/团结湖,大望路	火锅	鱼火锅	鱼火锅,火锅	95.0	010-53311430	1.0	298.0	3.5	329.5	758.5	2.40273196067	0.235668789809	0.191409701555	370.246092782	0.288431196709	2.05418719212	0.00426770198539	0.00753073907219	1	5.0	1.753173075	203	3.46842105263
230	霸夫buff驱散饥饿	99725657	65609034.0	朝阳区望京soho塔1a座1210室	39.996445	116.48149			望京	朝阳区,望京	小吃快餐	快餐简餐	快餐简餐	26.0	010-53311735	1.0	468.0	448.0	9754.2	3741.5	2.37196905085	0.226244343891	1.03398921563	281.245096964	0.703454150234	4.48868778281	0.0230539925226	0.00572047479192	1	4.6	3.52706468257	221	375.161538462
231	通乐簋街小龙虾（石景山店）	51880811	24796477.0	石景山区八角东街25-24号（原开心凤凰）	39.917755	116.20715			古城/八角	石景山区,古城/八角	川湘菜	川菜/家常菜	川菜/家常菜	112.0	010-53312647	1.0	878.0	23.2	2337.02	658.6	2.2758749214	0.13058419244	0.821738760674	285.669127052	0.731310767427	4.23129251701	0.0183216216938	0.00581045876986	1	5.0	3.19612508264	147	20.86625
232	瑞可叔叔の店（悦荟万科广场店）	4090749	18390180.0	昌平区南环路10号院1号楼悦荟万科广场4层	40.21226	116.23916			昌平镇	昌平区,昌平镇	甜点饮品	甜品饮品	甜品饮品	39.0	010-53313626	1.0	13950.6666667	115.75	3299.4725	5240.25	2.44170320886	0.133262260128	1.35877269795	362.619994192	0.709162893832	3.26682134571	0.0302954181196	0.00737562559568	1	4.89634903947	4.13392100609	2586	84.6018589744
233	重庆三姐老火锅（顺义店）	42445072	21170595.0	顺义区顺通路27号泛亚嘉联汽车销售一条街内	40.0994	116.65872			顺义	顺义区,顺义	火锅	重庆火锅	重庆火锅	84.0	010-53313981	1.0	499.333333333	43.5	3703.0725	1702.0	2.32279764947	0.242424242424	0.62645142106	225.247317527	0.66812614929	3.57352941176	0.0139674632565	0.00458149000915	1	4.81975967957	3.44653283131	136	44.0841964286
234	好口福蛋糕鲜花连锁店	41651009	22653720.0	大兴区文化园西路8号	39.91661	116.47996			朝外大街	朝阳区,朝外大街	甜点饮品	面包甜点	面包甜点	158.0	010-53317038	1.0	0.0	72.5	9790.0	1941.5	2.37724119779	0.175757575758	0.306631846495	364.913865299	0.314010259827	1.97741273101	0.0068367137582	0.00742228252226	1		1.95080160171	487	61.9620253165
235	聚点串吧（酒仙桥）	4323472	19495005.0	朝阳区酒仙桥路21号楼	39.974728	116.48947			酒仙桥	朝阳区,酒仙桥	烧烤烤肉	烧烤	烧烤	81.0	010-53318029	1.0	6208.66666667	13.75	1357.905	1104.75	2.33430211843	0.0675675675676	0.796542609289	220.066783396	0.968513050968	5.44512195122	0.017759844185	0.00447611887477	1	4.65161602062	3.80829665154	164	16.7642592593
236	阿田大虾（沙河地铁店）	41640594	21967518.0	昌平区沙河镇松兰堡村西兰堡公寓铁木真沙河店楼下	40.15228	116.29688			沙河	昌平区,沙河	火锅	火锅	火锅	76.0	010-53318605	1.0	433.0	32.25	2840.38	1728.75	2.32016524726	0.261467889908	0.343434575022	97.4355783534	0.430657211979	2.43829787234	0.0076572734076	0.00198182217512	1	4.66043110085	2.8118199946	235	37.3734210526
237	孙大嫩酸浆豆腐宴（悦秀城店）	62110868	23736774.0	丰台区开阳路8号悦秀城内	39.868294	116.37573			开阳里	丰台区,开阳里	其他美食	农家菜	农家菜	61.0	010-53322483	1.0	1226.0	33.5	4392.9225	699.5	2.32107063526	0.0365853658537	0.64882953263	414.081901504	0.658741911678	3.61728395062	0.014466409289	0.00842235155356	1	4.78466557912	3.02418088453	162	72.0151229508
238	虾吃虾涮（龙湖时代天街店）	73449927	43717574.0	大兴区永兴路5号龙湖时代天街商业2号楼305室（地铁生物医药基地站B口对面）	39.68763	116.32264			大兴区	大兴区	火锅	火锅	火锅	75.0	010-53322878	1.0	1895.0	78.5	9098.54	2086.5	2.29822150236	0.250737463127	0.660942408993	253.494085344	0.593489360729	3.13333333333	0.0147364799599	0.00515602419657	1	4.33482849604	3.68540985417	315	121.313866667
239	四九城饺子馆	97327317	58770882.0	朝阳区望京街道广顺北大街望京西园4区熊家城烤肉旁边	39.996517	116.46884			望京	朝阳区,望京	京菜鲁菜	北京菜	北京菜	54.0	010-53323209	1.0		4.0	380.0	34.0	1.87788405913	0.0285714285714	0.0476890891467	344.110176971	0.507427518073	4.36363636364	0.00106328372481	0.0069991392357	1	5.0	1.15958881431	11	7.03703703704
240	满園春饼·烤鸭（槐房万达店）	117473147	69532823.0	丰台区南苑西路39号万达四楼	39.814102	116.367966			公益西桥	丰台区,公益西桥	东北菜	东北菜	东北菜	67.0	010-53324887	1.0	3.0	0.0	16.64	22.0	2.29250863957	0.0	0.359627381936	310.506956176	0.836119795718	4.69047619048	0.00801831087673	0.00631565575612	1	5.0	2.91074971333	42	0.248358208955
241	虾吃虾涮（三环新城店）	98137016	57281283.0	丰台区丰桥路7号院三环新城8号楼底商	39.85223	116.3127			丰台区	丰台区	火锅	火锅	火锅	81.0	010-53326189	1.0	1233.33333333	68.25	10039.135	1586.0	2.1862914054	0.268292682927	0.567265398493	266.336875204	0.570566887127	3.07258064516	0.0126478420254	0.00541724423718	1	4.81648648649	3.37972312452	248	123.939938272
242	张亮麻辣烫（生物医药基地店）	41157869	23266336.0	大兴区大兴龙湖时代天街底商北门往东10米左右（生物医药基地地铁站）	39.68785	116.32483			黄村	大兴区,黄村	小吃快餐	麻辣烫	麻辣烫	26.0	010-53340075	1.0	940.333333333	17.0	420.075	917.333333333	2.31800109062	0.296703296703	0.562529678336	516.580536461	0.511040633203	3.17816091954	0.0125422536349	0.0105071553912	1	4.97497341368	3.02776212352	174	16.1567307692
243	节骨眼羊蝎子	96832972	66908501.0	房山区苏庄北路25号二楼	39.72936	116.12284			良乡	房山区,良乡	火锅	火锅	火锅	30.0	010-53341698	1.0	45.6	2.16666666667	373.243333333	52.3333333333	1.15638468751	0.352941176471	0.0681793633698	177.673921948	0.518702037026	2.81818181818	0.00152013822733	0.00361385568197	1	3.88947368421	1.76776147229	11	12.4414444444
244	杨国福麻辣烫	42993959	21971865.0	石景山区八角东街65号（融科大厦b1层1084室）	39.91025	116.20599			古城/八角	石景山区,古城/八角	小吃快餐	麻辣烫	麻辣烫	23.0	010-53348813	1.0	114.2	12.3636363636	222.559090909	590.818181818	2.08587106119	0.252747252747	0.240383386994	597.667960838	0.593992605279	3.26785714286	0.00535962727907	0.0121564590488	1	4.42101576182	2.38677697459	56	9.67648221343
245	bunnie家的烤肉店	91293368	65889668.0	丰台区蒲黄榆二里，联合大学特殊教育学院北门对面	39.86995	116.420006			丰台区	丰台区	烧烤烤肉	烧烤	烧烤	85.0	010-53353161	1.0	1265.33333333	11.25	1183.33	406.0	2.36885987771	0.0903614457831	0.527263695722	417.957467388	0.571891042346	3.33632286996	0.0117559575235	0.00850117986803	1	4.94072708114	2.83951565888	223	13.9215294118
246	张亮麻辣烫（上海沙龙店）	51957373	24092397.0	大兴区上海沙龙商业街B105号	39.791107	116.4987			亦庄	大兴区,亦庄	小吃快餐	麻辣烫	麻辣烫	20.0	010-53355322	1.0	528.666666667	52.75	1048.0275	1880.25	2.34369059573	0.190243902439	0.505609490975	546.261330752	0.677913270517	3.18055555556	0.0112731518358	0.0111108574198	1	4.8474148802	3.10852973304	144	52.401375
247	家阿宝驴肉火烧（亦庄店）	50136605	22309502.0	大兴区北京经济技术开发区景园北街2号院68号楼8119	39.77758	116.51952			大兴区	大兴区	小吃快餐	小吃快餐	小吃快餐	24.0	010-53356365	1.0	240.0	7.0	118.3	162.0	1.84527504027	0.275862068966	0.0529472610383	92.7726048177	0.387681958845	2.30434782609	0.00118052078457	0.00188697813036	1	3.5	1.52911149355	23	4.92916666667
248	菓芝塔（门头沟店）	5103688	19826551.0	门头沟plus365购物中心二层	39.911163	116.11098			门头沟区	门头沟区	甜点饮品	面包甜点	面包甜点	20.0	010-53366229	1.0	1701.33333333	42.0	1325.6475	1748.0	2.25997857644	0.12015503876	0.626350320703	463.267551369	0.761694523421	3.33904109589	0.0139652091064	0.00942277884354	1	4.61536050157	3.35361818104	292	66.282375
249	富食联西北民族风味	87704208	65087381.0	东城区后鼓楼苑胡同3号	39.94036	116.39971			南锣鼓巷/鼓楼东大街	东城区,南锣鼓巷/鼓楼东大街	小吃快餐	其他中餐	中餐	47.0	010-53366709	1.0	72.0	2.5	157.0	114.0	1.98444774504	0.22	0.417870822742	773.583082469	0.589663718797	3.97297297297	0.00931691615088	0.015734541048	1	4.8	2.09890870713	37	3.34042553191
250	天润三汁焖锅	5490405	579325.0	昌平区西关环岛东苏宁电器对面，酷派售后服务中心挨着	40.22025	116.22472			昌平镇	昌平区,昌平镇	火锅	火锅	火锅,香锅	72.0	010-53369032	1.0	985.571428571	11.5	1143.345	153.875	2.08750270944	0.186440677966	0.656157934256	249.539574902	0.815654439664	4.66666666667	0.0146298045293	0.00507559016398	1	4.73665748659	3.11321417514	45	15.8797916667
251	川娃子老火锅（石景山游乐园店）	42217367	77265111.0	石景山区八角东街25-4号（近搜狐畅游）	39.91101	116.20597			古城/八角	石景山区,古城/八角	火锅	火锅	火锅	66.0	010-53370665	0.0	130.0	21.25	2133.775	230.0	1.62942711114	0.294117647059	0.124658820627	354.287382205	0.627523939436	3.69230769231	0.00277941343602	0.00720614176345	1	4.26461538462	1.51715158489	13	32.3299242424
252	川湘情川娃子	150353399	77265111.0	石景山区八角东街25-4号（融科旁）	39.91101	116.20597			古城/八角	石景山区,古城/八角	川湘菜	火锅	火锅	66.0	010-53370665	0.0	0.0	9.0	884.55	250.0	2.04571429965	0.133333333333	0.432964631993	354.287382205	0.956202306349	5.05405405405	0.00965345018854	0.00720614176345	1		2.87619537174	37	13.4022727273
253	那味道串串香（新喜隆多店）	6182032	20652509.0	石景山区阜石路喜隆多商场四层	39.92284	116.17173			苹果园	石景山区,苹果园	火锅	串串香	串串香	65.0	010-53382835	1.0	233.571428571	11.0	960.444285714	313.0	2.34177011728	0.219931271478	0.712106025086	264.934611557	0.719919036982	3.90291262136	0.0158772323053	0.00538872244631	1	4.94464831804	3.73975069729	206	14.7760659341
254	水平有限螺蛳粉（回龙观店）	40605184	21350207.0	昌平区回龙观港龙商业中心(回龙观尾货市场)	40.078278	116.33079			回龙观	昌平区,回龙观	小吃快餐	小吃快餐	小吃快餐,粉面馆	24.0	010-53383389	1.0	848.0	21.75	702.5625	1106.5	2.27719640395	0.179211469534	0.553442107805	469.473140539	0.792685198176	3.94736842105	0.0123396356773	0.00954899941343	1	4.79308176101	3.68634394684	171	29.2734375
255	花豆豆生煎	42791055	22244424.0	大兴区金星西路3号院3号楼B1楼（绿地缤纷城B1楼）	39.763866	116.33407			黄村	大兴区,黄村	小吃快餐	生煎/锅贴	生煎/锅贴	25.0	010-53386330	1.0	4139.28571429	135.5	2434.285	4722.375	2.36023889169	0.252647503782	1.01748386132	268.390563757	0.608100312208	3.52466367713	0.0226859864458	0.00545901589375	1	4.8305608283	3.99497246143	669	97.3714
256	魏家凉皮（瑞城店）	4573311	19807322.0	房山区拱辰南大街1号瑞城广场1层	39.72994	116.14181			良乡	房山区,良乡	小吃快餐	小吃快餐	小吃快餐	17.0	010-53387679	1.0	1042.66666667	26.0	549.67	310.25	2.05182828152	0.271428571429	0.390712537833	869.146957716	0.659335009908	3.48051948052	0.00871139059244	0.0176782931179	1	4.59386189258	3.13411089633	77	32.3335294118
257	东方宫中国兰州牛肉拉面（昌平店）	4765410	19595236.0	昌平区鼓楼南街和政府街什子路口	40.21989	116.23411			昌平镇	昌平区,昌平镇	西北菜	西北菜	西北菜	25.0	010-53394519	1.0	1200.0	402.833333333	11627.4583333	24100.8333333	2.41145540316	0.0191972076789	0.919233075346	228.645290481	0.628200336534	2.87541163557	0.0204953708659	0.00465060416914	1	4.72466666667	3.78133042663	1822	465.098333332
258	金草帽·春川鸡排锅（对外经贸大学店）	5987954	19207777.0	朝阳区惠新东街紫光发展大厦B3座惠新东街11号东（对外经贸大学西门对面）	39.980522	116.42341			芍药居	朝阳区,对外经贸,芍药居	火锅	火锅	火锅	62.0	010-53395620	1.0		2838.0	276287.0	28373.0	2.34443723687	0.205417607223	0.897556104703	490.875734993	0.854219495456	4.59176029963	0.020012057586	0.0099843243431	1	4.2	4.07460115508	267	4456.24193548
259	虹精品餐厅	6092497	17725656.0	大兴区荣华南路1号荣华天地酒店1层（近荣京东街地铁站）	39.79115	116.5106			亦庄	朝阳区,大兴区,十八里店,亦庄	川湘菜	川菜/家常菜	川菜/家常菜,粤菜馆	153.0	010-53507788	1.0	59.0	18.0	1516.6475	486.0	2.00187563156	0.1	0.226816565753	124.351161862	0.702412313391	4.64285714286	0.00505713921562	0.00252928031265	1	4.50169491525	1.96523704938	14	9.91272875817
260	大江小渔烤全鱼（恒泰广场店）	112098995	74622674.0	丰台区丰台北路18号院5号楼恒泰广场四层南路大集餐饮区内（地铁10号线或14号线西局站A出口）	39.86615	116.30483			丰台区	丰台区	川湘菜	烤鱼	烤鱼	84.0	010-53556058	1.0	82.5	0.0	24.6625	18.0	2.10260232156	0.148936170213	0.10126366562	293.182954679	0.574197082403	3.65	0.00225779123682	0.00596328867514	1	5.0	1.84443972706	20	0.293601190476
261	金源海鲜自助（丽泽店）	102793212	68128722.0	丰台区丰台北路18号院恒泰广场B座金源酒店2层	39.866215	116.30703			六里桥/丽泽桥	丰台区,六里桥/丽泽桥	自助餐	自助餐	自助餐,海鲜	234.0	010-53556588	1.0	2068.0	124.6	28074.164	4465.6	2.36301464367	0.132110091743	0.921307800077	303.099174822	0.638990170785	4.14600550964	0.0205416292675	0.006164982813	1	4.9	3.92190467653	363	119.975059829
262	汉釜宫韩式自助烤肉（京港城店）	100575974	69105238.0	丰台区光彩路石榴庄京深市场对面京港城生活广场4层（石榴庄地铁站C口出南500米路西）	39.8406	116.41463			大红门	丰台区,大红门	自助餐	自助餐	自助餐	71.0	010-53556906	1.0	1238.0	1347.75	86795.4525	9863.0	2.3717876209	0.0907407407407	0.570296108377	296.137118437	0.486181817756	2.59580052493	0.0127154152282	0.00602337583574	1	4.68222940226	3.10862031558	762	1222.47116197
263	又见成都	101217394	69105267.0	丰台区京港城生活广场四层	39.8406	116.41463			大红门	丰台区,刘家窑,大红门	川湘菜	川菜/家常菜	川菜/家常菜	54.0	010-53556910	1.0	30.0	3.33333333333	279.676666667	132.666666667	2.30017523913	0.124183006536	0.383254635188	296.137118437	0.78130820429	3.87142857143	0.00854510797632	0.00602337583574	1	5.0	3.00044314466	70	5.17919753087
264	李老爹香辣蟹（木樨园店）	111216110	69935630.0	丰台区木樨园合生广场5层504号	39.85545	116.39777			丰台区	丰台区	川湘菜	川菜/家常菜	川菜/家常菜	72.0	010-53556987	1.0	15.0	1.0	123.255	68.0	1.88406538626	0.0740740740741	0.188694185401	433.941691065	0.754437003158	3.81818181818	0.00420715639347	0.00882629610862	1	4.5	1.64173471219	11	1.711875
265	鼎极轩海鲜烤肉自助（四道口店）	41031617	16368424.0	海淀区四道口路2号乐天玛特二层	39.95924	116.345726			北下关	海淀区,北下关	自助餐	自助餐	自助餐,海鲜,烧烤	77.0	010-53567011	1.0	28878.3333333	3510.0	328876.35	166892.25	2.43663021363	0.0514285714286	1.14103462627	520.59435561	0.489793234768	2.56906012843	0.0254406944914	0.0105887957523	1	4.81740636002	3.48661142744	8565	4271.12142857
266	贡茶（通州万达店）	60633202	27522412.0	通州区西门金街B区1-149号	39.90548	116.6429			新华大街	通州区,新华大街	甜点饮品	甜品饮品	甜品饮品	20.0	010-53602598	1.0	468.6	30.1666666667	440.916666667	927.333333333	2.14812854243	0.171548117155	0.784596303582	935.927509003	0.873544772954	5.05617977528	0.0174934874007	0.0190365975447	1	4.85966709347	3.67680786008	89	22.0458333333
267	9号街区(丰台万达广场店)	115480068	74698552.0	丰台区丰科路与五圈路交叉口东南角丰台万达广场5层	39.82416	116.29889			总部基地	丰台区,总部基地	川湘菜	香锅	香锅	63.0	010-53605358	1.0	9.0	2.5	218.34	149.0	2.20079012917	0.126582278481	0.192859257326	716.922563549	0.651514302666	3.04651162791	0.00430002151774	0.0145820762631	1	4.9	2.57661370706	43	3.46571428571
268	欧巴悠炸鸡Oba Fried Chicken（长楹天街店）	42166553	23965796.0	朝阳区常营长楹天街购物中心西区B1层（朝阳北路）	39.925053	116.59833			常营	朝阳区,常营	日韩料理	韩国料理	韩国料理	45.0	010-53605900	1.0	615.0	101.0	2929.0	2318.5	2.33578304336	0.103448275862	0.755151973179	208.499331525	0.839776390263	4.25816023739	0.0168369917984	0.00424083897993	1	4.7	4.20947304558	337	65.0888888889
269	久悦日料	110540180	74466238.0	通州区新华西街万达金街B区2-227号	39.90446	116.64044			通州北苑	通州区,通州北苑	日韩料理	日本料理	日本料理,日式自助	221.0	010-53609590	1.0	7.5	4.75	1342.09	103.5	2.01590004713	0.0961538461538	0.192295907577	1426.53586144	0.549234748965	2.3488372093	0.00428746097969	0.0290154833747	1	4.7	2.17762210929	43	6.07280542986
270	铁木真自助城（昌平西关店）	296178	13680316.0	昌平区西关环岛信祥广场（京客隆东侧唐人府酒店对面）	40.222042	116.22086			昌平镇	昌平区,昌平镇	自助餐	自助餐	自助餐	50.0	010-53613037	1.0	963.6	2785.5	168127.415	26418.1666667	2.33275478926	0.0980113636364	0.633051662087	155.867453167	0.409385785062	2.36428009441	0.014114623309	0.00317031602096	1	4.74645080946	3.06132644979	1271	3362.5483
271	铁木真（环球新意店）	4292993	17145492.0	延庆区延庆镇妫水北街苏宁电器二层	40.46226	115.97612			延庆县其他	延庆县其他	自助餐	自助餐	自助餐	56.0	010-53613038	1.0	872.666666667	937.25	53070.2175	3364.75	2.29073471361	0.134387351779	0.384831400064	346.938464125	0.440205178977	2.20266666667	0.00858026378367	0.00705666608877	1	3.99789915966	2.55350931274	375	947.682455357
272	麦多馅饼（同济南路店）	42282741	24088138.0	大兴区亦庄经济技术开发区康定街18号（永康公寓底商）	39.772045	116.53898			亦庄	大兴区,亦庄	小吃快餐	快餐简餐	快餐简餐		010-53617129	1.0	156.666666667	12.0	106.1025	319.5	2.15653009962	0.252100840336	0.406888256663	127.060975362	0.681574312339	4.13461538462	0.00907204706285	0.00258439743284	1	4.64042553191	3.1133273663	52	
273	老大同刀削面	41376444	16833594.0	海淀区中关村北一街北二条化学研究所对面	39.98907	116.32243			中关村	海淀区,中关村	小吃快餐	小吃快餐	小吃快餐,粉面馆	19.0	010-53630693	1.0	1917.33333333	171.0	2115.52666667	7052.66666667	2.35637080943	0.233438485804	0.456287739149	335.709068399	0.477220046136	2.61755485893	0.0101734659971	0.00682826219525	1	4.96230876217	2.71194572387	319	111.343508772
274	馥郁轩筋头巴脑牛一锅（七克拉分店）	98533720	66100346.0	丰台区马家堡东路七克拉北门底商4-4号	39.83968	116.38566			丰台区	丰台区	火锅	涮羊肉	涮羊肉	66.0	010-53635617	1.0	261.0	4.5	435.745	303.0	1.97150089598	0.229885057471	0.328469810157	456.621328845	0.916412871231	5.2	0.00732361656467	0.00928759587034	1	4.2	2.84153646794	25	6.6021969697
275	仁和盛酒楼	42562731	23127694.0	通州区梨园九棵树中路1014号（大马庄西北侧）	39.86562	116.657745			梨园	通州区,梨园	京菜鲁菜	北京菜	北京菜	108.0	010-53635817	1.0	530.666666667	20.75	4794.5475	707.0	2.06729424415	0.0952380952381	0.209824265999	210.144340897	0.650182443867	3.0	0.00467827612347	0.0042742981753	1	4.50351758794	2.53213754452	38	44.3939583333
276	品味石锅鱼（密云季庄店）	42806314	21317514.0	密云区季庄小区54号（万都金港往北200米）（近万都金港KTV、青岛啤酒厂）	40.381023	116.82674			密云果园	密云镇,密云果园	火锅	鱼火锅	鱼火锅	28.0	010-53636918	1.0	2850.0	70.0	9429.99	1286.5	2.31692763949	0.205521472393	0.830385031134	82.9230805647	0.733066735591	3.60810810811	0.0185144003529	0.00168664057493	1	4.60926315789	3.77996205073	296	336.785357143
277	老北京食府	50565389	24093694.0	丰台区马家堡西路28号院8号楼一层108号	39.8437	116.375206			马家堡/角门	丰台区,马家堡/角门	京菜鲁菜	北京菜	北京菜,家常菜	59.0	010-53639877	1.0	127.0	8.0	709.103333333	182.0	1.82222779367	0.1875	0.0215179083436	342.538918053	0.403015504902	2.13333333333	0.000479766800813	0.00696718011134	1	4.3	1.59901471221	15	12.018700565
278	新老诚一锅（金顶街店）	40784638	75144104.0	石景山区金顶北街电厂模式口小区东底商（原爱上烤羊腿）	39.93514	116.1702			石景山区	石景山区	烧烤烤肉	涮羊肉	涮羊肉	55.0	010-53646578	0.0	2472.0	16.0	3468.0	356.0	2.08212355468	0.100529100529	0.671758529246	152.685736096	0.941747288131	4.7972972973	0.0149776379446	0.00310560046683	1	3.9	3.41240197078	74	63.0545454545
279	虾吃虾涮（良乡店）	41466289	21361177.0	房山区北关西路与西潞北大街交叉口东北角	39.736263	116.13714			良乡	房山区,良乡	火锅	火锅	火锅	84.0	010-53646885	1.0	5927.0	166.0	20655.5575	6100.25	2.35242167167	0.254874651811	0.906339724028	258.01618321	0.513399752553	2.74881141046	0.0202078985979	0.00524800285549	1	4.77602497047	3.61118716784	1262	245.899494048
280	京伊味（清真）	70297702	37770541.0	通州区新华西街60号院1号楼一层134号	39.90493	116.63854			通州北苑	通州区,通州北苑	小吃快餐	其他中餐	中餐	17.0	010-53650155	1.0	815.0	40.0	595.1775	2107.5	2.25208552683	0.358885017422	1.94797068534	976.665899546	0.697318196694	6.14204545455	0.0434322727311	0.0198652090963	1	4.74576687117	3.86923802548	176	35.0104411765
281	重庆陈府火锅（大红门店）	79020178	32709267.0	丰台区临泓路1号底商（地铁十号线大红门A2口向西100米南）	39.84528	116.39621			洋桥/木樨园	丰台区,洋桥/木樨园	火锅	重庆火锅	重庆火锅	80.0	010-53650576	1.0	110.0	17.75	1561.81	222.0	1.77195671838	0.363636363636	0.0284885748379	340.788933851	0.363880563888	2.375	0.000635185920092	0.00693158574676	1	4.79636363636	1.53664989749	16	19.522625
282	晋面香大同刀削面（石景山分店）	4751725	18288080.0	石景山区游乐园西南门西侧四号	39.9107	116.205986			古城/八角	石景山区,古城/八角	其他美食	山西菜	山西菜	28.0	010-53650867	1.0	354.285714286	1.625	146.095	299.125	2.31971164705	0.0194174757282	0.235792778277	520.017428836	0.746593093345	3.12903225806	0.00525727431693	0.0105770611653	1	4.22661290323	2.87452883003	62	5.21767857143
283	三个渔夫（清河店）	5978740	15962107.0	海淀区朱房路27号	40.030888	116.32512			清河	海淀区,清河	火锅	鱼火锅	鱼火锅	94.0	010-53652468	1.0	2420.4	46.6666666667	10557.1133333	1538.83333333	2.41215940117	0.20424403183	0.422213430532	229.158779672	0.385504701984	2.40365111562	0.00941373964383	0.00466104844712	1	4.95604032391	2.42488855234	493	112.309716312
284	丁丁洋回转自助火锅（石景山店）	42539662	45247775.0	石景山区石景山路31号盛景国际广场地下一层物美大卖场	39.90799	116.20166			古城/八角	石景山区,古城/八角	火锅	自助餐	自助餐,火锅	44.0	010-53652621	1.0	3192.0	1821.75	71466.705	108006.75	2.37454104122	0.219757220594	1.2311955819	279.663891417	0.481421893009	2.69871706442	0.0274509378918	0.00568831335492	1	4.22180451128	3.61918700548	7249	1624.24329545
285	江上渔者巫山烤全鱼（通州万达店）	63266615	32654848.0	通州区万达西门金街二层2-224号二层电梯旁（万达广场）	39.905315	116.63819			通州北苑	通州区,通州北苑	川湘菜	烤鱼	烤鱼	90.0	010-53652678	1.0	8200.0	543.5	59649.5	8806.0	2.30439216067	0.117808219178	1.44832801273	653.559850643	0.70393149083	3.65202702703	0.0322921580527	0.0132932900555	1	4.2	4.22049976944	1480	662.772222222
286	汉丽轩烤肉超市（北大地店）	6510032	15926393.0	丰台区西四环南路总后二招南门（公交车站北大地站旁）	39.857536	116.282486			北大地	丰台区,北大地	自助餐	自助餐	自助餐,韩国料理,烧烤	55.0	010-53656766	1.0	12963.2	579.0	30664.044	16569.8	2.3408564545	0.0977564102564	0.634929889537	236.337992741	0.475563389527	2.53734238603	0.0141565005752	0.00480707235236	1	4.48752159961	3.2966050459	1031	557.528072727
287	猫眼餐厅（定福庄店）	5649873	20631858.0	朝阳区定福庄西里1号院20号楼一层6号	39.915462	116.55351			定福庄	朝阳区,定福庄	西餐	意大利菜	意大利菜	42.0	010-53660917	1.0	1362.0	25.0	1706.75	1303.0	2.22947428031	0.0588235294118	0.400788315533	142.098042049	0.623386516239	3.03349282297	0.00893604177861	0.00289024867028	1	5.0	3.14963145918	209	40.6369047619
288	英伦时光（马坡店）	3317123	13657960.0	顺义区马坡地区泰和宜园4-101号（马坡建设银行西侧，泰和宜园门口）	40.176186	116.65066			马坡牛栏山	顺义区,马坡牛栏山	甜点饮品	甜品饮品	甜品饮品	24.0	010-53663079	1.0	627.8	12.3333333333	1466.71666667	385.166666667	2.09593576055	0.166666666667	0.443486363967	209.689034208	0.594113530966	3.10204081633	0.00988804444404	0.00426503731898	1	4.22978655623	2.57218511602	98	61.1131944446
289	杨铭宇黄焖鸡米饭（厂洼店）	50178570	24973502.0	海淀区万寿桥西行200米（北京外国语大学南门对面）	39.95351	116.30708			远大路	海淀区,远大路	小吃快餐	快餐简餐	快餐简餐	23.0	010-53665266	1.0	558.0	77.0	1548.3	1363.5	2.11558773478	0.241573033708	0.357914804326	401.121498619	0.481931150704	2.98290598291	0.00798012696647	0.00815873928513	1	4.4	2.57150313857	117	67.3173913043
290	汉丽轩烤肉超市（公主坟店）	2505561	11557086.0	海淀区翠微路12号凯德mallB1层	39.912067	116.303375			公主坟/万寿路	海淀区,公主坟/万寿路	自助餐	自助餐	自助餐,韩国料理,烧烤	56.0	010-53666282	1.0	24053.3333333	1620.0	83138.715	69133.25	2.39871842512	0.0629053177691	0.91890856541	2752.86972129	0.467465969241	2.47530161621	0.0204881355393	0.0559928760219	1	3.91922394678	3.28569847685	4393	1484.61991071
291	蜜菓の蜜制鲜饮（地安门店）	51088556	26989720.0	西城区地安门东大街111号	39.93366	116.39852			地安门	东城区,西城区,地安门	甜点饮品	甜品饮品	甜品饮品	18.0	010-53670197	1.0	225.0	16.0	142.0925	389.75	2.19802685332	0.108571428571	0.389838800391	656.217069396	0.681233416326	3.86111111111	0.00869190959965	0.013347337408	1	5.0	2.8433778341	72	7.89402777778
292	长板凳老灶火锅24小时营业（双井店）	40124461	22372837.0	朝阳区广渠路66号院甲3号	39.891357	116.46487			双井	朝阳区,双井	火锅	重庆火锅	重庆火锅	90.0	010-53670233	1.0	4056.0	144.5	22446.0	965.5	2.29451356146	0.296495956873	0.581585339662	421.381857845	0.539938545366	3.46031746032	0.0129671217738	0.00857083135528	1	4.0	3.42406540721	252	249.4
293	东方宫中国兰州牛肉拉面（龙湖长楹天街店）	42063321	21602923.0	朝阳区朝阳北路龙湖长楹天街西区B2-a02（地铁F口旁边）沿西区东侧扶梯到负二层即到	39.924835	116.5999			管庄	朝阳区,管庄	小吃快餐	快餐简餐	快餐简餐	23.0	010-53670605	1.0	19092.0	1031.5	21644.85	9839.0	2.35539758099	0.220125786164	0.901976559127	244.966804125	0.650423400143	3.57764876633	0.0201106167603	0.00498258082713	1	4.0	4.10573446749	689	941.080434783
294	川湘菜木木烧烤吧	60804711	37754886.0	房山区绿地缤纷城天星街1号院3号楼（绿地缤纷城东门南侧）	39.756134	116.16172			良乡	房山区,良乡	烧烤烤肉	烧烤	烧烤	72.0	010-53672368	1.0	81.0	2.33333333333	200.0	122.0	1.90477609823	0.102040816327	0.292784932281	271.297275025	0.594604016523	3.54166666667	0.00652798069605	0.00551813787921	1	4.7	2.35409461385	24	2.77777777778
295	旺客基黄焖鸡	96807845	66432359.0	通州区新华西街58号院1号楼23号283（万达广场西门新街B1-283）	39.90482	116.641136			新华大街	通州区,新华大街	小吃快餐	快餐简餐	快餐简餐	20.0	010-53674010	1.0	80.0	26.0	468.1	1543.0	2.04131362072	0.375	0.779185676364	1429.46281752	0.547604620407	5.06976744186	0.0173728511721	0.0290750171358	1	4.1	2.41015087778	43	23.405
296	渝乡村家常菜（北苑路店）	312450	3365812.0	朝阳区北苑路（易初莲花北）	40.034107	116.41813			亚运村	朝阳区,亚运村	川湘菜	川菜/家常菜	川菜/家常菜	77.0	010-53675990	1.0	839.0	6.5	743.21	298.0	2.10625039676	0.103896103896	0.150537144404	219.017695033	0.466096643068	2.35294117647	0.00335640077189	0.00445478060576	1	4.82508939213	2.24080389299	68	9.65207792208
297	张亮麻辣烫	40875599	22911740.0	顺义区南法信金关二街空港旭辉3号楼104-3	40.11427	116.61082			首都机场	朝阳区,顺义区,首都机场	小吃快餐	麻辣烫	麻辣烫	24.0	010-53676717	1.0	90.6666666667	5.0	89.165	190.0	1.99498323368	0.235294117647	0.181321837945	103.031802888	0.650011611068	3.32432432432	0.00404278132982	0.00209564837769	1	3.96764705882	2.41196062735	37	3.71520833333
298	小猪小牛章鱼水煎肉(丰台万达广场店)	118816285	74952827.0	丰台区丰科路与五圈路交叉口东南角丰台万达广场4层	39.82404	116.29896			总部基地	丰台区,总部基地	烧烤烤肉	烧烤	烧烤	83.0	010-53684033	1.0	372.0	58.5	9141.925	1872.0	2.29263846301	0.0896226415094	0.645845965986	419.456461211	0.686994838354	3.33546325879	0.0143998871996	0.00853166913333	1	5.0	3.62705282436	313	110.143674699
299	闫府私房菜(丰台万达广场店)	114999330	74690268.0	丰台区丰科路与五圈路交叉口东南角丰台万达广场4层	39.825336	116.29721			总部基地	丰台区,总部基地	京菜鲁菜	鲁菜	鲁菜	66.0	010-53685468	1.0	96.0	2.5	276.475	190.0	2.11072458028	0.08	0.2942382116	240.023876687	0.614785218009	3.37704918033	0.00656038324924	0.00488204257023	1	5.0	2.46457603152	61	4.18901515152
300	阿里郎韩式料理	40917704	26964568.0	朝阳区管庄西里一栋一层东A4室（嘉和一品旁）	39.916065	116.590515			管庄	朝阳区,管庄	日韩料理	韩国料理	韩国料理	40.0	010-53686838	1.0	246.0	15.0	1903.0	341.0	2.18303647657	0.117021276596	0.150890028952	127.692405522	0.590797043409	2.66666666667	0.00336426874345	0.00259724060897	1	4.4	2.45518960212	75	47.575
301	秋田道（龙湖天街店）	93929357	66801780.0	大兴区永大路龙湖天街购物中心四层	39.687492	116.3205			大兴区	大兴区	日韩料理	寿司/简餐	寿司/简餐	77.0	010-53687966	1.0	168.4	93.5	8207.94833333	1060.0	2.39076774966	0.0757281553398	0.971202928487	2506.25240845	0.691795252756	3.32358003442	0.0216540992042	0.0509767241439	1	4.95510688836	3.92675054013	581	106.596731602
302	丁丁洋回转自助火锅（清元路店）	5030716	14895466.0	大兴区清源路百联清城购物中心3层	39.739	116.33195			黄村	大兴区,黄村	火锅	自助餐	自助餐,火锅	39.0	010-53688434	1.0	6137.6	1056.5	42153.57	54043.8333333	2.37565753682	0.198858230257	0.836445210133	224.367598048	0.448808892422	2.37198067633	0.0186495190942	0.00456359667284	1	4.42249087591	3.18042693592	3519	1080.86076923
303	金手勺（方庄市场店）	110698715	69265962.0	丰台区方庄芳群园二区28号楼（方庄市场正门对面）	39.861595	116.4314			方庄	丰台区,方庄	东北菜	东北菜	东北菜	51.0	010-53688477	1.0	80.3333333333	3.66666666667	413.293333333	223.666666667	2.19052249831	0.0263157894737	0.174580559433	418.745976843	0.838064517777	3.33333333333	0.00389247668248	0.00851721800881	1	4.777593361	2.95168620095	39	8.10379084967
304	水平有限螺蛳粉（上地店）	91461632	66619351.0	海淀区上地西路华联购物中心北侧	40.02951	116.31132			上地	海淀区,上地	小吃快餐	小吃快餐	小吃快餐,粉面馆	26.0	010-53689185	1.0	280.0	176.0	3262.0	842.0	2.1951046541	0.205479452055	0.324075956787	244.722759261	0.598611520515	3.46428571429	0.00722565049191	0.00497761699839	1	4.5	2.75223509894	84	125.461538462
305	coco咪可茶饮（残街店）	3314627	24937499.0	朝阳区传媒大学西门残街中段	39.91284	116.55188			管庄	朝阳区,管庄	甜点饮品	甜品饮品	甜品饮品	12.0	010-53693657	1.0	4132.33333333	204.75	1662.7325	5312.25	2.18899195557	0.1375	0.546833517291	138.328931309	0.636463331793	3.25862068966	0.0121922894632	0.00281358563435	1	4.90666290232	3.31587358255	290	138.561041667
306	麻辣小厨-碳烤全鱼香锅小面	52900646	27222705.0	房山区苏庄大街苏园小区19号楼一层底商	39.72788	116.12393			良乡	房山区,良乡	川湘菜	香锅	香锅,烤鱼	54.0	010-53693900	1.0	1594.0	23.5	1374.5375	930.0	2.22258020367	0.0629370629371	0.380076476406	121.057492046	0.671965448328	3.08333333333	0.00847424722877	0.00246228765975	1	4.38255959849	3.07138784451	120	25.4543981481
307	爱麦面包（东坝店）	5582377	18208492.0	朝阳区东坝路西北门村利康诊所斜对面	39.974888	116.5472			东坝	朝阳区,东坝	甜点饮品	面包甜点	面包甜点		010-53695265	1.0	1510.0	61.3333333333	6819.46	1329.0	2.27138637122	0.194029850746	0.301568709019	73.7530273336	0.414222183021	2.28398791541	0.00672382521763	0.00150012333813	1	5.0	2.42996286116	331	
308	想朴就去朴烤肉专营店	71726077	43875211.0	朝阳区百子湾桥西200米火凤凰火锅旁边（后现代城对面百子湾路）	39.900852	116.487915			百子湾	朝阳区,百子湾	日韩料理	韩国料理	韩国料理	111.0	010-53697756	1.0		29.0	2552.0	298.0	2.11268547735	0.173076923077	0.154497145332	324.165967796	0.471583266087	2.76470588235	0.00344469359971	0.00659347760084	1	5.0	2.10975385259	34	22.990990991
309	小武家	5871934	17729928.0	石景山区金顶路与金顶西街西口（公交金安桥北站附近）	39.92654	116.161385			苹果园	石景山区,苹果园	川湘菜	川菜/家常菜	川菜/家常菜	34.0	010-53697950	1.0	3940.0	26.0	1561.2	2137.0	2.34914175812	0.151515151515	0.794356472538	253.186557155	0.629227891771	3.22685185185	0.0177111017228	0.0051497691284	1	3.8	3.18323890381	432	45.9176470588
310	东方宫中国兰州牛肉拉面（天坛店）	5338611	17829833.0	东城区体育馆西路107号（天华公馆底商）	39.88526	116.42464			天坛	东城区,天坛	西北菜	西北菜	西北菜	25.0	010-53801655	1.0	238.666666667	45.25	1213.5875	1432.25	2.28210173373	0.010101010101	0.249454594946	495.144465552	0.487571240696	2.28181818182	0.00556188041394	0.0100711495565	1	4.75195530726	2.58980156935	220	48.5435
311	朝林松源酒店自助餐厅	107984014	69080150.0	大兴区荣华中路19号朝林松源酒店内	39.79222	116.50555			亦庄	大兴区,亦庄	自助餐	自助餐	自助餐	269.0	010-53876996	1.0	36.0	83.0	15852.0	283.5	2.37990683286	0.0677966101695	0.387953135664	144.660892354	0.732209338879	3.44444444444	0.00864986651075	0.00294237658548	1	4.9	2.99843048883	63	58.9293680297
312	鱼图腾鱼头泡饼（龙湖大兴天街店）	94035790	66798329.0	大兴区永兴路七号院龙湖大兴天街购物中心4层	39.687492	116.3205			大兴区	大兴区	其他美食	家常菜	家常菜	73.0	010-53956717	1.0	25.0	3.5	350.63	1433.0	2.17422687193	0.0226244343891	0.454567665009	2506.25240845	0.812531817525	3.56910569106	0.0101351149429	0.0509767241439	1	5.0	3.3260048582	123	4.80315068493
